{"help": "http://data.takwimu.org/api/3/action/help_show?name=datastore_search", "success": true, "result": {"resource_id": "ce8bf586-7987-44a9-91b5-b69f6589c6a1", "fields": [{"type": "int4", "id": "_id"}, {"type": "text", "id": "FACILITY_ID_NUMBER"}, {"type": "text", "id": "FACILITY_NAME"}, {"type": "numeric", "id": "LATITUDE"}, {"type": "numeric", "id": "LONGITUDE"}, {"type": "text", "id": "ZONE"}, {"type": "text", "id": "REGION"}, {"type": "text", "id": "COUNCIL"}, {"type": "text", "id": "COMMON FACILITY HEALTH NAME"}, {"type": "text", "id": "FACILITY TYPE"}, {"type": "text", "id": "OWNERSHIP"}, {"type": "text", "id": "OPERATING_STATUS"}, {"type": "text", "id": "RATING"}], "records": [{"RATING": "0", "COMMON FACILITY HEALTH NAME": "", "OWNERSHIP": "FAITH BASED ORGANIZATION", "ZONE": "WESTERN", "FACILITY_NAME": "BUPANDAGILA - SDA", "FACILITY_ID_NUMBER": "100000-9", "LONGITUDE": "34.01009", "FACILITY TYPE": "DISPENSARY", "COUNCIL": "BARIADI URBAN", "LATITUDE": "-2.64496", "_id": 1, "REGION": "SIMIYU", "OPERATING_STATUS": "OPERATING"}, {"RATING": "0", "COMMON FACILITY HEALTH NAME": "ZAHANATI", "OWNERSHIP": "PUBLIC", "ZONE": "LAKE", "FACILITY_NAME": "BUPANDWAMHELA", "FACILITY_ID_NUMBER": "100001-7", "LONGITUDE": "32.1526", "FACILITY TYPE": "DISPENSARY", "COUNCIL": "SENGEREMA", "LATITUDE": "-2.44682", "_id": 2, "REGION": "MWANZA", "OPERATING_STATUS": "OPERATING"}, {"RATING": "0", "COMMON FACILITY HEALTH NAME": "BUPIGI", "OWNERSHIP": "PUBLIC", "ZONE": "WESTERN", "FACILITY_NAME": "BUPIGI", "FACILITY_ID_NUMBER": "100002-5", "LONGITUDE": "33.69935", "FACILITY TYPE": "DISPENSARY", "COUNCIL": "KISHAPU", "LATITUDE": "-3.55117", "_id": 3, "REGION": "SHINYANGA", "OPERATING_STATUS": "OPERATING"}, {"RATING": "0", "COMMON FACILITY HEALTH NAME": "", "OWNERSHIP": "PUBLIC", "ZONE": "SOUTHERN HIGHLANDS", "FACILITY_NAME": "BUPIGU", "FACILITY_ID_NUMBER": "100003-3", "LONGITUDE": "33.3476", "FACILITY TYPE": "DISPENSARY", "COUNCIL": "ILEJE", "LATITUDE": "-9.50139", "_id": 4, "REGION": "MBEYA", "OPERATING_STATUS": "OPERATING"}, {"RATING": "0", "COMMON FACILITY HEALTH NAME": "", "OWNERSHIP": "PUBLIC", "ZONE": "EASTERN", "FACILITY_NAME": "BUPU", "FACILITY_ID_NUMBER": "100004-1", "LONGITUDE": "39.0225", "FACILITY TYPE": "DISPENSARY", "COUNCIL": "MKURANGA", "LATITUDE": "-7.19919", "_id": 5, "REGION": "PWANI", "OPERATING_STATUS": "OPERATING"}, {"RATING": "0", "COMMON FACILITY HEALTH NAME": "", "OWNERSHIP": "FAITH BASED ORGANIZATION", "ZONE": "LAKE", "FACILITY_NAME": "BURERE", "FACILITY_ID_NUMBER": "100005-8", "LONGITUDE": "33.964", "FACILITY TYPE": "DISPENSARY", "COUNCIL": "RORYA", "LATITUDE": "-1.30831", "_id": 6, "REGION": "MARA", "OPERATING_STATUS": "OPERATING"}, {"RATING": "0", "COMMON FACILITY HEALTH NAME": "KWA BAKE", "OWNERSHIP": "PRIVATE", "ZONE": "EASTERN", "FACILITY_NAME": "BURERE", "FACILITY_ID_NUMBER": "100006-6", "LONGITUDE": "38.92455", "FACILITY TYPE": "HEALTH CENTRE", "COUNCIL": "KIBAHA URBAN", "LATITUDE": "-6.76108", "_id": 7, "REGION": "PWANI", "OPERATING_STATUS": "OPERATING"}, {"RATING": "0", "COMMON FACILITY HEALTH NAME": "BURHANI", "OWNERSHIP": "FAITH BASED ORGANIZATION", "ZONE": "NORTHERN", "FACILITY_NAME": "BURHAN STR. 4", "FACILITY_ID_NUMBER": "100009-0", "LONGITUDE": "39.1007", "FACILITY TYPE": "DISPENSARY", "COUNCIL": "TANGA URBAN", "LATITUDE": "-5.0761", "_id": 8, "REGION": "TANGA", "OPERATING_STATUS": "OPERATING"}, {"RATING": "0", "COMMON FACILITY HEALTH NAME": "HOSPITALI YA BURHANI", "OWNERSHIP": "FAITH BASED ORGANIZATION", "ZONE": "EASTERN", "FACILITY_NAME": "BURHANI CHARITABLE", "FACILITY_ID_NUMBER": "100010-8", "LONGITUDE": "39.285851", "FACILITY TYPE": "HEALTH CENTRE", "COUNCIL": "ILALA URBAN", "LATITUDE": "-6.818845", "_id": 9, "REGION": "DAR ES SALAAM", "OPERATING_STATUS": "OPERATING"}, {"RATING": "0", "COMMON FACILITY HEALTH NAME": "BURIGI DISPENSARY", "OWNERSHIP": "PUBLIC", "ZONE": "LAKE", "FACILITY_NAME": "BURIGI", "FACILITY_ID_NUMBER": "100011-6", "LONGITUDE": "31.4234", "FACILITY TYPE": "DISPENSARY", "COUNCIL": "MULEBA", "LATITUDE": "-2.12365", "_id": 10, "REGION": "KAGERA", "OPERATING_STATUS": "OPERATING"}, {"RATING": "0", "COMMON FACILITY HEALTH NAME": "BURITO DISPENSARY", "OWNERSHIP": "PRIVATE", "ZONE": "LAKE", "FACILITY_NAME": "BURITO", "FACILITY_ID_NUMBER": "100012-4", "LONGITUDE": "34.676955", "FACILITY TYPE": "DISPENSARY", "COUNCIL": "SERENGETI", "LATITUDE": "-1.845858", "_id": 11, "REGION": "MARA", "OPERATING_STATUS": "OPERATING"}, {"RATING": "0", "COMMON FACILITY HEALTH NAME": "BURUMA DISPENSARY", "OWNERSHIP": "PUBLIC", "ZONE": "SOUTHERN", "FACILITY_NAME": "BURMA", "FACILITY_ID_NUMBER": "100014-0", "LONGITUDE": "34.91393", "FACILITY TYPE": "DISPENSARY", "COUNCIL": "MBINGA", "LATITUDE": "-11.16848", "_id": 12, "REGION": "RUVUMA", "OPERATING_STATUS": "OPERATING"}, {"RATING": "0", "COMMON FACILITY HEALTH NAME": "BURUMA", "OWNERSHIP": "PUBLIC", "ZONE": "LAKE", "FACILITY_NAME": "BURUMA", "FACILITY_ID_NUMBER": "100015-7", "LONGITUDE": "33.83745", "FACILITY TYPE": "DISPENSARY", "COUNCIL": "BUTIAMA", "LATITUDE": "-1.67623", "_id": 13, "REGION": "MARA", "OPERATING_STATUS": "OPERATING"}, {"RATING": "0", "COMMON FACILITY HEALTH NAME": "", "OWNERSHIP": "PUBLIC", "ZONE": "WESTERN", "FACILITY_NAME": "202 KJ", "FACILITY_ID_NUMBER": "100017-3", "LONGITUDE": "32.82869", "FACILITY TYPE": "DISPENSARY", "COUNCIL": "TABORA URBAN", "LATITUDE": "-5.05716", "_id": 14, "REGION": "TABORA", "OPERATING_STATUS": "OPERATING"}, {"RATING": "0", "COMMON FACILITY HEALTH NAME": "HOSPITALI YA JESHI", "OWNERSHIP": "PUBLIC", "ZONE": "EASTERN", "FACILITY_NAME": "511 KJ GONGO LA MBOTO", "FACILITY_ID_NUMBER": "100019-9", "LONGITUDE": "39.15133", "FACILITY TYPE": "DISPENSARY", "COUNCIL": "ILALA URBAN", "LATITUDE": "-6.88878", "_id": 15, "REGION": "DAR ES SALAAM", "OPERATING_STATUS": "OPERATING"}, {"RATING": "0", "COMMON FACILITY HEALTH NAME": "MTC 512 KJ", "OWNERSHIP": "PUBLIC", "ZONE": "LAKE", "FACILITY_NAME": "512 KJ", "FACILITY_ID_NUMBER": "100020-7", "LONGITUDE": "32.91911", "FACILITY TYPE": "DISPENSARY", "COUNCIL": "NYAMAGANA URBAN", "LATITUDE": "-2.58227", "_id": 16, "REGION": "MWANZA", "OPERATING_STATUS": "OPERATING"}, {"RATING": "0", "COMMON FACILITY HEALTH NAME": "ZAHANATI YA JESHI", "OWNERSHIP": "PUBLIC", "ZONE": "SOUTHERN HIGHLANDS", "FACILITY_NAME": "514 KJ", "FACILITY_ID_NUMBER": "100021-5", "LONGITUDE": null, "FACILITY TYPE": "DISPENSARY", "COUNCIL": "MAKAMBAKO URBAN", "LATITUDE": null, "_id": 17, "REGION": "NJOMBE", "OPERATING_STATUS": "OPERATING"}, {"RATING": "0", "COMMON FACILITY HEALTH NAME": "", "OWNERSHIP": "PUBLIC", "ZONE": "LAKE", "FACILITY_NAME": "663 KJ", "FACILITY_ID_NUMBER": "100022-3", "LONGITUDE": null, "FACILITY TYPE": "DISPENSARY", "COUNCIL": "ILEMELA URBAN", "LATITUDE": null, "_id": 18, "REGION": "MWANZA", "OPERATING_STATUS": "OPERATING"}, {"RATING": "0", "COMMON FACILITY HEALTH NAME": "KWA KASELA", "OWNERSHIP": "PRIVATE", "ZONE": "SOUTHERN HIGHLANDS", "FACILITY_NAME": "A AND A", "FACILITY_ID_NUMBER": "100024-9", "LONGITUDE": "34.304", "FACILITY TYPE": "DISPENSARY", "COUNCIL": "MBARALI", "LATITUDE": "-8.67632", "_id": 19, "REGION": "MBEYA", "OPERATING_STATUS": "OPERATING"}, {"RATING": "0", "COMMON FACILITY HEALTH NAME": "AAB & R", "OWNERSHIP": "PRIVATE", "ZONE": "EASTERN", "FACILITY_NAME": "AA&B", "FACILITY_ID_NUMBER": "100025-6", "LONGITUDE": "39.27466", "FACILITY TYPE": "CLINIC", "COUNCIL": "ILALA URBAN", "LATITUDE": "-6.800753", "_id": 20, "REGION": "DAR ES SALAAM", "OPERATING_STATUS": "OPERATING"}, {"RATING": "0", "COMMON FACILITY HEALTH NAME": "A.J.NJIA HEALTH CENTRE", "OWNERSHIP": "FAITH BASED ORGANIZATION", "ZONE": "EASTERN", "FACILITY_NAME": "APOSTLES OF JESUS NJIA", "FACILITY_ID_NUMBER": "100026-4", "LONGITUDE": null, "FACILITY TYPE": "HEALTH CENTRE", "COUNCIL": "ILALA URBAN", "LATITUDE": null, "_id": 21, "REGION": "DAR ES SALAAM", "OPERATING_STATUS": "OPERATING"}, {"RATING": "0", "COMMON FACILITY HEALTH NAME": "", "OWNERSHIP": "PRIVATE", "ZONE": "NORTHERN", "FACILITY_NAME": "AAR", "FACILITY_ID_NUMBER": "100029-8", "LONGITUDE": "36.7018", "FACILITY TYPE": "HEALTH CENTRE", "COUNCIL": "ARUSHA URBAN", "LATITUDE": "-3.37317", "_id": 22, "REGION": "ARUSHA", "OPERATING_STATUS": "OPERATING"}, {"RATING": "0", "COMMON FACILITY HEALTH NAME": "AAR", "OWNERSHIP": "PRIVATE", "ZONE": "EASTERN", "FACILITY_NAME": "AAR", "FACILITY_ID_NUMBER": "100030-6", "LONGITUDE": "39.2856", "FACILITY TYPE": "HEALTH CENTRE", "COUNCIL": "ILALA URBAN", "LATITUDE": "-6.81643", "_id": 23, "REGION": "DAR ES SALAAM", "OPERATING_STATUS": "OPERATING"}, {"RATING": "0", "COMMON FACILITY HEALTH NAME": "AAR CHATO", "OWNERSHIP": "PRIVATE", "ZONE": "EASTERN", "FACILITY_NAME": "AAR", "FACILITY_ID_NUMBER": "100031-4", "LONGITUDE": "39.26071", "FACILITY TYPE": "HEALTH CENTRE", "COUNCIL": "KINONDONI URBAN", "LATITUDE": "-6.77726", "_id": 24, "REGION": "DAR ES SALAAM", "OPERATING_STATUS": "OPERATING"}, {"RATING": "0", "COMMON FACILITY HEALTH NAME": "AB DSM", "OWNERSHIP": "PRIVATE", "ZONE": "EASTERN", "FACILITY_NAME": "HEALTH HOME CHARITABLE", "FACILITY_ID_NUMBER": "100032-2", "LONGITUDE": "39.2766", "FACILITY TYPE": "DISPENSARY", "COUNCIL": "ILALA URBAN", "LATITUDE": "-6.81768", "_id": 25, "REGION": "DAR ES SALAAM", "OPERATING_STATUS": "OPERATING"}, {"RATING": "0", "COMMON FACILITY HEALTH NAME": "AFRICA SANA", "OWNERSHIP": "PRIVATE", "ZONE": "EASTERN", "FACILITY_NAME": "AFRICA SANA DENTAL", "FACILITY_ID_NUMBER": "100034-8", "LONGITUDE": "39.233285", "FACILITY TYPE": "CLINIC", "COUNCIL": "KINONDONI URBAN", "LATITUDE": "-6.773807", "_id": 26, "REGION": "DAR ES SALAAM", "OPERATING_STATUS": "OPERATING"}, {"RATING": "0", "COMMON FACILITY HEALTH NAME": "AFYA", "OWNERSHIP": "PRIVATE", "ZONE": "SOUTHERN HIGHLANDS", "FACILITY_NAME": "AFYA", "FACILITY_ID_NUMBER": "100035-5", "LONGITUDE": "31.068905", "FACILITY TYPE": "DISPENSARY", "COUNCIL": "MPANDA URBAN", "LATITUDE": "-6.340138", "_id": 27, "REGION": "KATAVI", "OPERATING_STATUS": "OPERATING"}, {"RATING": "0", "COMMON FACILITY HEALTH NAME": "", "OWNERSHIP": "PRIVATE", "ZONE": "EASTERN", "FACILITY_NAME": "AFYA BORA", "FACILITY_ID_NUMBER": "100036-3", "LONGITUDE": "39.2261", "FACILITY TYPE": "DISPENSARY", "COUNCIL": "ILALA URBAN", "LATITUDE": "-6.84474", "_id": 28, "REGION": "DAR ES SALAAM", "OPERATING_STATUS": "OPERATING"}, {"RATING": "0", "COMMON FACILITY HEALTH NAME": "TAUSI", "OWNERSHIP": "PRIVATE", "ZONE": "EASTERN", "FACILITY_NAME": "AFYA CARE CHARITABLE", "FACILITY_ID_NUMBER": "100039-7", "LONGITUDE": "39.19782", "FACILITY TYPE": "DISPENSARY", "COUNCIL": "ILALA URBAN", "LATITUDE": "-6.827736", "_id": 29, "REGION": "DAR ES SALAAM", "OPERATING_STATUS": "OPERATING"}, {"RATING": "0", "COMMON FACILITY HEALTH NAME": "", "OWNERSHIP": "PRIVATE", "ZONE": "SOUTHERN HIGHLANDS", "FACILITY_NAME": "AFYA YAKO", "FACILITY_ID_NUMBER": "100042-1", "LONGITUDE": "31.617587", "FACILITY TYPE": "CLINIC", "COUNCIL": "SUMBAWANGA URBAN", "LATITUDE": "-7.947572", "_id": 30, "REGION": "RUKWA", "OPERATING_STATUS": "OPERATING"}, {"RATING": "0", "COMMON FACILITY HEALTH NAME": "", "OWNERSHIP": "PRIVATE", "ZONE": "EASTERN", "FACILITY_NAME": "AGA KHAN", "FACILITY_ID_NUMBER": "100044-7", "LONGITUDE": "37.66494", "FACILITY TYPE": "HEALTH CENTRE", "COUNCIL": "MOROGORO URBAN", "LATITUDE": "-6.82926", "_id": 31, "REGION": "MOROGORO", "OPERATING_STATUS": "OPERATING"}, {"RATING": "0", "COMMON FACILITY HEALTH NAME": "AGAKHAN MEDICAL CENTRE", "OWNERSHIP": "PRIVATE", "ZONE": "SOUTHERN HIGHLANDS", "FACILITY_NAME": "AGA KHAN", "FACILITY_ID_NUMBER": "100045-4", "LONGITUDE": "35.69643", "FACILITY TYPE": "HEALTH CENTRE", "COUNCIL": "IRINGA URBAN", "LATITUDE": "-7.78328", "_id": 32, "REGION": "IRINGA", "OPERATING_STATUS": "OPERATING"}, {"RATING": "0", "COMMON FACILITY HEALTH NAME": "AGA KHAN", "OWNERSHIP": "FAITH BASED ORGANIZATION", "ZONE": "CENTRAL", "FACILITY_NAME": "AGA KHAN", "FACILITY_ID_NUMBER": "100046-2", "LONGITUDE": "35.746365", "FACILITY TYPE": "DISPENSARY", "COUNCIL": "DODOMA URBAN", "LATITUDE": "-6.180008", "_id": 33, "REGION": "DODOMA", "OPERATING_STATUS": "OPERATING"}, {"RATING": "0", "COMMON FACILITY HEALTH NAME": "", "OWNERSHIP": "FAITH BASED ORGANIZATION", "ZONE": "EASTERN", "FACILITY_NAME": "AGA KHAN", "FACILITY_ID_NUMBER": "100047-0", "LONGITUDE": "39.2866", "FACILITY TYPE": "HOSPITAL", "COUNCIL": "ILALA URBAN", "LATITUDE": "-6.80146", "_id": 34, "REGION": "DAR ES SALAAM", "OPERATING_STATUS": "OPERATING"}, {"RATING": "0", "COMMON FACILITY HEALTH NAME": "H.H AGAKHAN HEALTH CENTRE", "OWNERSHIP": "FAITH BASED ORGANIZATION", "ZONE": "LAKE", "FACILITY_NAME": "AGHA KHAN", "FACILITY_ID_NUMBER": "100052-0", "LONGITUDE": "32.542", "FACILITY TYPE": "HEALTH CENTRE", "COUNCIL": "NYAMAGANA URBAN", "LATITUDE": "-2.312", "_id": 35, "REGION": "MWANZA", "OPERATING_STATUS": "OPERATING"}, {"RATING": "0", "COMMON FACILITY HEALTH NAME": "", "OWNERSHIP": "FAITH BASED ORGANIZATION", "ZONE": "SOUTHERN HIGHLANDS", "FACILITY_NAME": "AGHA KHAN", "FACILITY_ID_NUMBER": "100053-8", "LONGITUDE": "33.4414", "FACILITY TYPE": "HEALTH CENTRE", "COUNCIL": "MBEYA URBAN", "LATITUDE": "-8.89303", "_id": 36, "REGION": "MBEYA", "OPERATING_STATUS": "OPERATING"}, {"RATING": "0", "COMMON FACILITY HEALTH NAME": "", "OWNERSHIP": "FAITH BASED ORGANIZATION", "ZONE": "EASTERN", "FACILITY_NAME": "AHMADIYYA", "FACILITY_ID_NUMBER": "100056-1", "LONGITUDE": "37.66318", "FACILITY TYPE": "HEALTH CENTRE", "COUNCIL": "MOROGORO URBAN", "LATITUDE": "-6.82734", "_id": 37, "REGION": "MOROGORO", "OPERATING_STATUS": "OPERATING"}, {"RATING": "0", "COMMON FACILITY HEALTH NAME": "ST. RAPHAEL MED CENTRE", "OWNERSHIP": "PRIVATE", "ZONE": "EASTERN", "FACILITY_NAME": "AHUENI", "FACILITY_ID_NUMBER": "100057-9", "LONGITUDE": "39.258316", "FACILITY TYPE": "HEALTH CENTRE", "COUNCIL": "TEMEKE URBAN", "LATITUDE": "-6.866646", "_id": 38, "REGION": "DAR ES SALAAM", "OPERATING_STATUS": "OPERATING"}, {"RATING": "0", "COMMON FACILITY HEALTH NAME": "BWERI AIC", "OWNERSHIP": "FAITH BASED ORGANIZATION", "ZONE": "LAKE", "FACILITY_NAME": "AIC BWERI", "FACILITY_ID_NUMBER": "100058-7", "LONGITUDE": null, "FACILITY TYPE": "DISPENSARY", "COUNCIL": "MUSOMA URBAN", "LATITUDE": null, "_id": 39, "REGION": "MARA", "OPERATING_STATUS": "OPERATING"}, {"RATING": "0", "COMMON FACILITY HEALTH NAME": "AIC NYASHO", "OWNERSHIP": "FAITH BASED ORGANIZATION", "ZONE": "LAKE", "FACILITY_NAME": "AIC NYASHO", "FACILITY_ID_NUMBER": "100059-5", "LONGITUDE": "33.802456", "FACILITY TYPE": "DISPENSARY", "COUNCIL": "MUSOMA URBAN", "LATITUDE": "-1.512699", "_id": 40, "REGION": "MARA", "OPERATING_STATUS": "OPERATING"}, {"RATING": "0", "COMMON FACILITY HEALTH NAME": "AICT BUNDA", "OWNERSHIP": "FAITH BASED ORGANIZATION", "ZONE": "LAKE", "FACILITY_NAME": "AICT BUNDA", "FACILITY_ID_NUMBER": "100061-1", "LONGITUDE": "33.872", "FACILITY TYPE": "DISPENSARY", "COUNCIL": "BUNDA", "LATITUDE": "-2.01881", "_id": 41, "REGION": "MARA", "OPERATING_STATUS": "OPERATING"}, {"RATING": "0", "COMMON FACILITY HEALTH NAME": "AICT MAKONGORO", "OWNERSHIP": "FAITH BASED ORGANIZATION", "ZONE": "LAKE", "FACILITY_NAME": "AICT MAKONGORO", "FACILITY_ID_NUMBER": "100062-9", "LONGITUDE": "32.90121", "FACILITY TYPE": "HEALTH CENTRE", "COUNCIL": "NYAMAGANA URBAN", "LATITUDE": "-2.50528", "_id": 42, "REGION": "MWANZA", "OPERATING_STATUS": "OPERATING"}, {"RATING": "0", "COMMON FACILITY HEALTH NAME": "TERMINAL ONE", "OWNERSHIP": "PUBLIC", "ZONE": "EASTERN", "FACILITY_NAME": "AIRPORT POLICE", "FACILITY_ID_NUMBER": "100069-4", "LONGITUDE": "39.20314", "FACILITY TYPE": "DISPENSARY", "COUNCIL": "ILALA URBAN", "LATITUDE": "-6.87122", "_id": 43, "REGION": "DAR ES SALAAM", "OPERATING_STATUS": "OPERATING"}, {"RATING": "0", "COMMON FACILITY HEALTH NAME": "AIR WING", "OWNERSHIP": "PUBLIC", "ZONE": "EASTERN", "FACILITY_NAME": "AIRWING 603 ATS", "FACILITY_ID_NUMBER": "100070-2", "LONGITUDE": "39.19808", "FACILITY TYPE": "DISPENSARY", "COUNCIL": "ILALA URBAN", "LATITUDE": "-6.868095", "_id": 44, "REGION": "DAR ES SALAAM", "OPERATING_STATUS": "OPERATING"}, {"RATING": "0", "COMMON FACILITY HEALTH NAME": "KWA AKIM", "OWNERSHIP": "PRIVATE", "ZONE": "EASTERN", "FACILITY_NAME": "AKIM DENTAL SERVICES", "FACILITY_ID_NUMBER": "100072-8", "LONGITUDE": null, "FACILITY TYPE": "CLINIC", "COUNCIL": "ILALA URBAN", "LATITUDE": null, "_id": 45, "REGION": "DAR ES SALAAM", "OPERATING_STATUS": "OPERATING"}, {"RATING": "0", "COMMON FACILITY HEALTH NAME": "AL HILAL", "OWNERSHIP": "FAITH BASED ORGANIZATION", "ZONE": "EASTERN", "FACILITY_NAME": "AL HILAL", "FACILITY_ID_NUMBER": "100075-1", "LONGITUDE": "39.28139", "FACILITY TYPE": "DISPENSARY", "COUNCIL": "ILALA URBAN", "LATITUDE": "-6.81897", "_id": 46, "REGION": "DAR ES SALAAM", "OPERATING_STATUS": "OPERATING"}, {"RATING": "0", "COMMON FACILITY HEALTH NAME": "BAKWATA", "OWNERSHIP": "PRIVATE", "ZONE": "EASTERN", "FACILITY_NAME": "AL KARIMU", "FACILITY_ID_NUMBER": "100078-5", "LONGITUDE": "39.237449", "FACILITY TYPE": "DISPENSARY", "COUNCIL": "ILALA URBAN", "LATITUDE": "-6.840399", "_id": 47, "REGION": "DAR ES SALAAM", "OPERATING_STATUS": "OPERATING"}, {"RATING": "0", "COMMON FACILITY HEALTH NAME": "", "OWNERSHIP": "FAITH BASED ORGANIZATION", "ZONE": "SOUTHERN HIGHLANDS", "FACILITY_NAME": "ALAMAL", "FACILITY_ID_NUMBER": "100079-3", "LONGITUDE": null, "FACILITY TYPE": "DISPENSARY", "COUNCIL": "IRINGA URBAN", "LATITUDE": null, "_id": 48, "REGION": "IRINGA", "OPERATING_STATUS": "OPERATING"}, {"RATING": "0", "COMMON FACILITY HEALTH NAME": "ALAMANO", "OWNERSHIP": "FAITH BASED ORGANIZATION", "ZONE": "SOUTHERN HIGHLANDS", "FACILITY_NAME": "ALAMANO", "FACILITY_ID_NUMBER": "100080-1", "LONGITUDE": "35.70111", "FACILITY TYPE": "DISPENSARY", "COUNCIL": "IRINGA URBAN", "LATITUDE": "-7.77281", "_id": 49, "REGION": "IRINGA", "OPERATING_STATUS": "OPERATING"}, {"RATING": "0", "COMMON FACILITY HEALTH NAME": "KALOLENI HEALTH CENTRE", "OWNERSHIP": "FAITH BASED ORGANIZATION", "ZONE": "NORTHERN", "FACILITY_NAME": "AL-EHSAA", "FACILITY_ID_NUMBER": "100082-7", "LONGITUDE": "37.3457", "FACILITY TYPE": "DISPENSARY", "COUNCIL": "MOSHI URBAN", "LATITUDE": "-3.36883", "_id": 50, "REGION": "KILIMANJARO", "OPERATING_STATUS": "OPERATING"}, {"RATING": "0", "COMMON FACILITY HEALTH NAME": "AL JUMAA", "OWNERSHIP": "FAITH BASED ORGANIZATION", "ZONE": "LAKE", "FACILITY_NAME": "AL-IJUMAA", "FACILITY_ID_NUMBER": "100085-0", "LONGITUDE": "32.542", "FACILITY TYPE": "HEALTH CENTRE", "COUNCIL": "NYAMAGANA URBAN", "LATITUDE": "-2.312", "_id": 51, "REGION": "MWANZA", "OPERATING_STATUS": "OPERATING"}, {"RATING": "0", "COMMON FACILITY HEALTH NAME": "AL JUMAA DISPENSARY", "OWNERSHIP": "FAITH BASED ORGANIZATION", "ZONE": "EASTERN", "FACILITY_NAME": "AL JUMAA", "FACILITY_ID_NUMBER": "100086-8", "LONGITUDE": "39.275753", "FACILITY TYPE": "DISPENSARY", "COUNCIL": "ILALA URBAN", "LATITUDE": "-6.818188", "_id": 52, "REGION": "DAR ES SALAAM", "OPERATING_STATUS": "OPERATING"}, {"RATING": "0", "COMMON FACILITY HEALTH NAME": "", "OWNERSHIP": "PRIVATE", "ZONE": "EASTERN", "FACILITY_NAME": "ALLIANCE ONE", "FACILITY_ID_NUMBER": "100090-0", "LONGITUDE": "37.76137", "FACILITY TYPE": "DISPENSARY", "COUNCIL": "MOROGORO", "LATITUDE": "-6.77842", "_id": 53, "REGION": "MOROGORO", "OPERATING_STATUS": "OPERATING"}, {"RATING": "0", "COMMON FACILITY HEALTH NAME": "", "OWNERSHIP": "PRIVATE", "ZONE": "LAKE", "FACILITY_NAME": "ALPHA", "FACILITY_ID_NUMBER": "100093-4", "LONGITUDE": "34.4751", "FACILITY TYPE": "CLINIC", "COUNCIL": "TARIME", "LATITUDE": "-1.25212", "_id": 54, "REGION": "MARA", "OPERATING_STATUS": "OPERATING"}, {"RATING": "0", "COMMON FACILITY HEALTH NAME": "AMANA", "OWNERSHIP": "PUBLIC", "ZONE": "EASTERN", "FACILITY_NAME": "AMANA", "FACILITY_ID_NUMBER": "100097-5", "LONGITUDE": "39.25926", "FACILITY TYPE": "HOSPITAL", "COUNCIL": "ILALA URBAN", "LATITUDE": "-6.82674", "_id": 55, "REGION": "DAR ES SALAAM", "OPERATING_STATUS": "OPERATING"}, {"RATING": "0", "COMMON FACILITY HEALTH NAME": "AMANI", "OWNERSHIP": "PUBLIC", "ZONE": "SOUTHERN HIGHLANDS", "FACILITY_NAME": "AMANI", "FACILITY_ID_NUMBER": "100100-7", "LONGITUDE": "34.89538", "FACILITY TYPE": "DISPENSARY", "COUNCIL": "LUDEWA", "LATITUDE": "-9.94648", "_id": 56, "REGION": "NJOMBE", "OPERATING_STATUS": "OPERATING"}, {"RATING": "0", "COMMON FACILITY HEALTH NAME": "AMANI", "OWNERSHIP": "PUBLIC", "ZONE": "SOUTHERN", "FACILITY_NAME": "AMANI", "FACILITY_ID_NUMBER": "100105-6", "LONGITUDE": "36.25852", "FACILITY TYPE": "DISPENSARY", "COUNCIL": "NAMTUMBO", "LATITUDE": "-11.24256", "_id": 57, "REGION": "RUVUMA", "OPERATING_STATUS": "OPERATING"}, {"RATING": "0", "COMMON FACILITY HEALTH NAME": "AMANI", "OWNERSHIP": "PUBLIC", "ZONE": "SOUTHERN", "FACILITY_NAME": "AMANI", "FACILITY_ID_NUMBER": "100106-4", "LONGITUDE": "37.45284", "FACILITY TYPE": "DISPENSARY", "COUNCIL": "", "LATITUDE": "-11.21349", "_id": 58, "REGION": "RUVUMA", "OPERATING_STATUS": "OPERATING"}, {"RATING": "0", "COMMON FACILITY HEALTH NAME": "AMANI", "OWNERSHIP": "PUBLIC", "ZONE": "NORTHERN", "FACILITY_NAME": "AMANI", "FACILITY_ID_NUMBER": "100107-2", "LONGITUDE": "38.63348", "FACILITY TYPE": "DISPENSARY", "COUNCIL": "MUHEZA", "LATITUDE": "-5.10012", "_id": 59, "REGION": "TANGA", "OPERATING_STATUS": "OPERATING"}, {"RATING": "0", "COMMON FACILITY HEALTH NAME": "AMANI", "OWNERSHIP": "PRIVATE", "ZONE": "CENTRAL", "FACILITY_NAME": "AMANI", "FACILITY_ID_NUMBER": "100108-0", "LONGITUDE": "35.760658", "FACILITY TYPE": "HEALTH CENTRE", "COUNCIL": "DODOMA URBAN", "LATITUDE": "-6.160399", "_id": 60, "REGION": "DODOMA", "OPERATING_STATUS": "OPERATING"}, {"RATING": "0", "COMMON FACILITY HEALTH NAME": "", "OWNERSHIP": "PRIVATE", "ZONE": "NORTHERN", "FACILITY_NAME": "AMANI", "FACILITY_ID_NUMBER": "100109-8", "LONGITUDE": null, "FACILITY TYPE": "CLINIC", "COUNCIL": "BABATI URBAN", "LATITUDE": null, "_id": 61, "REGION": "MANYARA", "OPERATING_STATUS": "OPERATING"}, {"RATING": "0", "COMMON FACILITY HEALTH NAME": "AMANI CHOGO", "OWNERSHIP": "PRIVATE", "ZONE": "LAKE", "FACILITY_NAME": "AMANI CHOGO", "FACILITY_ID_NUMBER": "100110-6", "LONGITUDE": "32.90191", "FACILITY TYPE": "DISPENSARY", "COUNCIL": "NYAMAGANA URBAN", "LATITUDE": "-2.51685", "_id": 62, "REGION": "MWANZA", "OPERATING_STATUS": "OPERATING"}, {"RATING": "0", "COMMON FACILITY HEALTH NAME": "AMANI IGOMA", "OWNERSHIP": "PRIVATE", "ZONE": "LAKE", "FACILITY_NAME": "AMANI IGOMA", "FACILITY_ID_NUMBER": "100111-4", "LONGITUDE": null, "FACILITY TYPE": "DISPENSARY", "COUNCIL": "NYAMAGANA URBAN", "LATITUDE": null, "_id": 63, "REGION": "MWANZA", "OPERATING_STATUS": "OPERATING"}, {"RATING": "0", "COMMON FACILITY HEALTH NAME": "AMANI MAKORO DISPENSARY", "OWNERSHIP": "PUBLIC", "ZONE": "SOUTHERN", "FACILITY_NAME": "AMANI MAKOLO", "FACILITY_ID_NUMBER": "100112-2", "LONGITUDE": "35.13534", "FACILITY TYPE": "DISPENSARY", "COUNCIL": "MBINGA", "LATITUDE": "-10.7472", "_id": 64, "REGION": "RUVUMA", "OPERATING_STATUS": "OPERATING"}, {"RATING": "0", "COMMON FACILITY HEALTH NAME": "", "OWNERSHIP": "PUBLIC", "ZONE": "NORTHERN", "FACILITY_NAME": "AMBANGULU", "FACILITY_ID_NUMBER": "100116-3", "LONGITUDE": null, "FACILITY TYPE": "DISPENSARY", "COUNCIL": "KOROGWE", "LATITUDE": null, "_id": 65, "REGION": "TANGA", "OPERATING_STATUS": "OPERATING"}, {"RATING": "0", "COMMON FACILITY HEALTH NAME": "AMEC", "OWNERSHIP": "FAITH BASED ORGANIZATION", "ZONE": "SOUTHERN HIGHLANDS", "FACILITY_NAME": "AMEC", "FACILITY_ID_NUMBER": "100119-7", "LONGITUDE": "31.070345", "FACILITY TYPE": "DISPENSARY", "COUNCIL": "MPANDA URBAN", "LATITUDE": "-6.337284", "_id": 66, "REGION": "KATAVI", "OPERATING_STATUS": "OPERATING"}, {"RATING": "0", "COMMON FACILITY HEALTH NAME": "AMENI", "OWNERSHIP": "PRIVATE", "ZONE": "SOUTHERN HIGHLANDS", "FACILITY_NAME": "AMEN", "FACILITY_ID_NUMBER": "100120-5", "LONGITUDE": "33.86665", "FACILITY TYPE": "DISPENSARY", "COUNCIL": "KYELA", "LATITUDE": "-9.59996", "_id": 67, "REGION": "MBEYA", "OPERATING_STATUS": "OPERATING"}, {"RATING": "0", "COMMON FACILITY HEALTH NAME": "", "OWNERSHIP": "PRIVATE", "ZONE": "SOUTHERN", "FACILITY_NAME": "BANDARI", "FACILITY_ID_NUMBER": "100303-7", "LONGITUDE": "40.19507", "FACILITY TYPE": "DISPENSARY", "COUNCIL": "MTWARA URBAN", "LATITUDE": "-10.2804", "_id": 157, "REGION": "MTWARA", "OPERATING_STATUS": "OPERATING"}, {"RATING": "0", "COMMON FACILITY HEALTH NAME": "AMEN", "OWNERSHIP": "PRIVATE", "ZONE": "EASTERN", "FACILITY_NAME": "AMENI", "FACILITY_ID_NUMBER": "100121-3", "LONGITUDE": "39.22297", "FACILITY TYPE": "DISPENSARY", "COUNCIL": "KINONDONI URBAN", "LATITUDE": "-6.78339", "_id": 68, "REGION": "DAR ES SALAAM", "OPERATING_STATUS": "OPERATING"}, {"RATING": "0", "COMMON FACILITY HEALTH NAME": "ANAMED", "OWNERSHIP": "PRIVATE", "ZONE": "LAKE", "FACILITY_NAME": "ANAMID", "FACILITY_ID_NUMBER": "100123-9", "LONGITUDE": "33.31083", "FACILITY TYPE": "DISPENSARY", "COUNCIL": "KWIMBA", "LATITUDE": "-2.58523", "_id": 69, "REGION": "MWANZA", "OPERATING_STATUS": "OPERATING"}, {"RATING": "0", "COMMON FACILITY HEALTH NAME": "KWA MFILIPINO", "OWNERSHIP": "PRIVATE", "ZONE": "EASTERN", "FACILITY_NAME": "ANANDA MARGA", "FACILITY_ID_NUMBER": "100124-7", "LONGITUDE": "39.128981", "FACILITY TYPE": "DISPENSARY", "COUNCIL": "ILALA URBAN", "LATITUDE": "-6.928634", "_id": 70, "REGION": "DAR ES SALAAM", "OPERATING_STATUS": "OPERATING"}, {"RATING": "0", "COMMON FACILITY HEALTH NAME": "ANGLICAN HEALTH CENTER", "OWNERSHIP": "FAITH BASED ORGANIZATION", "ZONE": "SOUTHERN HIGHLANDS", "FACILITY_NAME": "ANGLICAN", "FACILITY_ID_NUMBER": "100129-6", "LONGITUDE": "34.771376", "FACILITY TYPE": "HEALTH CENTRE", "COUNCIL": "NJOMBE URBAN", "LATITUDE": "-9.349925", "_id": 71, "REGION": "NJOMBE", "OPERATING_STATUS": "OPERATING"}, {"RATING": "0", "COMMON FACILITY HEALTH NAME": "", "OWNERSHIP": "PRIVATE", "ZONE": "SOUTHERN HIGHLANDS", "FACILITY_NAME": "ANGLO CHARITY", "FACILITY_ID_NUMBER": "100131-2", "LONGITUDE": null, "FACILITY TYPE": "DISPENSARY", "COUNCIL": "TUNDUMA URBAN", "LATITUDE": null, "_id": 72, "REGION": "MBEYA", "OPERATING_STATUS": "OPERATING"}, {"RATING": "0", "COMMON FACILITY HEALTH NAME": "ANNE DISPENSARY- KWA DR. MULINDA", "OWNERSHIP": "PRIVATE", "ZONE": "SOUTHERN HIGHLANDS", "FACILITY_NAME": "ANNE", "FACILITY_ID_NUMBER": "100133-8", "LONGITUDE": "33.8795", "FACILITY TYPE": "DISPENSARY", "COUNCIL": "KYELA", "LATITUDE": "-9.483319", "_id": 73, "REGION": "MBEYA", "OPERATING_STATUS": "OPERATING"}, {"RATING": "0", "COMMON FACILITY HEALTH NAME": "", "OWNERSHIP": "PUBLIC", "ZONE": "NORTHERN", "FACILITY_NAME": "ANNE KIILU", "FACILITY_ID_NUMBER": "100134-6", "LONGITUDE": "37.41059", "FACILITY TYPE": "DISPENSARY", "COUNCIL": "MOSHI", "LATITUDE": "-3.31783", "_id": 74, "REGION": "KILIMANJARO", "OPERATING_STATUS": "OPERATING"}, {"RATING": "0", "COMMON FACILITY HEALTH NAME": "APOLLO", "OWNERSHIP": "PRIVATE", "ZONE": "EASTERN", "FACILITY_NAME": "APOLLO MEDICAL CENTRE", "FACILITY_ID_NUMBER": "100136-1", "LONGITUDE": "39.28314", "FACILITY TYPE": "HEALTH CENTRE", "COUNCIL": "ILALA URBAN", "LATITUDE": "-6.81857", "_id": 75, "REGION": "DAR ES SALAAM", "OPERATING_STATUS": "OPERATING"}, {"RATING": "0", "COMMON FACILITY HEALTH NAME": "ARAFA", "OWNERSHIP": "PRIVATE", "ZONE": "EASTERN", "FACILITY_NAME": "ARAFA MZINGA", "FACILITY_ID_NUMBER": "100139-5", "LONGITUDE": "39.202497", "FACILITY TYPE": "DISPENSARY", "COUNCIL": "ILALA URBAN", "LATITUDE": "-6.907995", "_id": 76, "REGION": "DAR ES SALAAM", "OPERATING_STATUS": "OPERATING"}, {"RATING": "0", "COMMON FACILITY HEALTH NAME": "SANDARYA DISPENSARY", "OWNERSHIP": "PRIVATE", "ZONE": "EASTERN", "FACILITY_NAME": "ARAFA (CAPRICORN)", "FACILITY_ID_NUMBER": "100141-1", "LONGITUDE": null, "FACILITY TYPE": "DISPENSARY", "COUNCIL": "KINONDONI URBAN", "LATITUDE": null, "_id": 77, "REGION": "DAR ES SALAAM", "OPERATING_STATUS": "OPERATING"}, {"RATING": "0", "COMMON FACILITY HEALTH NAME": "KWA DR. AMANI", "OWNERSHIP": "PRIVATE", "ZONE": "EASTERN", "FACILITY_NAME": "ARAFA AMANI", "FACILITY_ID_NUMBER": "100142-9", "LONGITUDE": "39.118159", "FACILITY TYPE": "DISPENSARY", "COUNCIL": "ILALA URBAN", "LATITUDE": "-6.888277", "_id": 78, "REGION": "DAR ES SALAAM", "OPERATING_STATUS": "OPERATING"}, {"RATING": "0", "COMMON FACILITY HEALTH NAME": "ARAFA HURUMA", "OWNERSHIP": "FAITH BASED ORGANIZATION", "ZONE": "EASTERN", "FACILITY_NAME": "ARAFA HURUMA", "FACILITY_ID_NUMBER": "100147-8", "LONGITUDE": "39.18769", "FACILITY TYPE": "DISPENSARY", "COUNCIL": "KINONDONI URBAN", "LATITUDE": "-6.66752", "_id": 79, "REGION": "DAR ES SALAAM", "OPERATING_STATUS": "OPERATING"}, {"RATING": "0", "COMMON FACILITY HEALTH NAME": "ARAFA FOUNDATION TRUST JARIBU", "OWNERSHIP": "FAITH BASED ORGANIZATION", "ZONE": "EASTERN", "FACILITY_NAME": "ARAFA IKWIRIRI", "FACILITY_ID_NUMBER": "100148-6", "LONGITUDE": "38.982116", "FACILITY TYPE": "DISPENSARY", "COUNCIL": "RUFIJI", "LATITUDE": "-7.954202", "_id": 80, "REGION": "PWANI", "OPERATING_STATUS": "OPERATING"}, {"RATING": "0", "COMMON FACILITY HEALTH NAME": "ARAFA FOUNDATION TRUST JARIBU", "OWNERSHIP": "FAITH BASED ORGANIZATION", "ZONE": "EASTERN", "FACILITY_NAME": "ARAFA JARIBU", "FACILITY_ID_NUMBER": "100149-4", "LONGITUDE": "39.131019", "FACILITY TYPE": "DISPENSARY", "COUNCIL": "RUFIJI", "LATITUDE": "-7.546859", "_id": 81, "REGION": "PWANI", "OPERATING_STATUS": "OPERATING"}, {"RATING": "0", "COMMON FACILITY HEALTH NAME": "ARAFA", "OWNERSHIP": "FAITH BASED ORGANIZATION", "ZONE": "EASTERN", "FACILITY_NAME": "ARAFA KICHEMCHEM", "FACILITY_ID_NUMBER": "100150-2", "LONGITUDE": "39.272028", "FACILITY TYPE": "DISPENSARY", "COUNCIL": "TEMEKE URBAN", "LATITUDE": "-6.913668", "_id": 82, "REGION": "DAR ES SALAAM", "OPERATING_STATUS": "OPERATING"}, {"RATING": "0", "COMMON FACILITY HEALTH NAME": "ARAFA KISIWANI", "OWNERSHIP": "FAITH BASED ORGANIZATION", "ZONE": "EASTERN", "FACILITY_NAME": "ARAFA KISIWANI", "FACILITY_ID_NUMBER": "100153-6", "LONGITUDE": "39.322069", "FACILITY TYPE": "DISPENSARY", "COUNCIL": "TEMEKE URBAN", "LATITUDE": "-6.843464", "_id": 83, "REGION": "DAR ES SALAAM", "OPERATING_STATUS": "OPERATING"}, {"RATING": "0", "COMMON FACILITY HEALTH NAME": "ARAFA KONA", "OWNERSHIP": "PRIVATE", "ZONE": "EASTERN", "FACILITY_NAME": "ARAFA KONA", "FACILITY_ID_NUMBER": "100154-4", "LONGITUDE": "39.19297", "FACILITY TYPE": "DISPENSARY", "COUNCIL": "KINONDONI URBAN", "LATITUDE": "-6.78898", "_id": 84, "REGION": "DAR ES SALAAM", "OPERATING_STATUS": "OPERATING"}, {"RATING": "0", "COMMON FACILITY HEALTH NAME": "ARAFA MAJUMBA SITA", "OWNERSHIP": "FAITH BASED ORGANIZATION", "ZONE": "EASTERN", "FACILITY_NAME": "ARAFA MAJUMBA SITA", "FACILITY_ID_NUMBER": "100156-9", "LONGITUDE": "39.199649", "FACILITY TYPE": "DISPENSARY", "COUNCIL": "ILALA URBAN", "LATITUDE": "-6.865963", "_id": 85, "REGION": "DAR ES SALAAM", "OPERATING_STATUS": "OPERATING"}, {"RATING": "0", "COMMON FACILITY HEALTH NAME": "", "OWNERSHIP": "FAITH BASED ORGANIZATION", "ZONE": "EASTERN", "FACILITY_NAME": "ARAFA MAPINDUZI", "FACILITY_ID_NUMBER": "100157-7", "LONGITUDE": "39.265052", "FACILITY TYPE": "DISPENSARY", "COUNCIL": "TEMEKE URBAN", "LATITUDE": "-6.927091", "_id": 86, "REGION": "DAR ES SALAAM", "OPERATING_STATUS": "OPERATING"}, {"RATING": "0", "COMMON FACILITY HEALTH NAME": "ARAFA MBAGALA KUU DISPENSARY", "OWNERSHIP": "FAITH BASED ORGANIZATION", "ZONE": "EASTERN", "FACILITY_NAME": "ARAFA MBAGALA KUU", "FACILITY_ID_NUMBER": "100158-5", "LONGITUDE": "39.283081", "FACILITY TYPE": "DISPENSARY", "COUNCIL": "TEMEKE URBAN", "LATITUDE": "-6.89674", "_id": 87, "REGION": "DAR ES SALAAM", "OPERATING_STATUS": "OPERATING"}, {"RATING": "0", "COMMON FACILITY HEALTH NAME": "ARAFA MBEZI LUIS", "OWNERSHIP": "PRIVATE", "ZONE": "EASTERN", "FACILITY_NAME": "ARAFA MBEZI", "FACILITY_ID_NUMBER": "100159-3", "LONGITUDE": "39.11571", "FACILITY TYPE": "DISPENSARY", "COUNCIL": "KINONDONI URBAN", "LATITUDE": "-6.783336", "_id": 88, "REGION": "DAR ES SALAAM", "OPERATING_STATUS": "OPERATING"}, {"RATING": "0", "COMMON FACILITY HEALTH NAME": "ARAFA MWANANCHI", "OWNERSHIP": "FAITH BASED ORGANIZATION", "ZONE": "EASTERN", "FACILITY_NAME": "ARAFA MWANANCHI .", "FACILITY_ID_NUMBER": "100161-9", "LONGITUDE": "39.18691", "FACILITY TYPE": "DISPENSARY", "COUNCIL": "KINONDONI URBAN", "LATITUDE": "-6.79292", "_id": 89, "REGION": "DAR ES SALAAM", "OPERATING_STATUS": "OPERATING"}, {"RATING": "0", "COMMON FACILITY HEALTH NAME": "ARAFA N.H.C", "OWNERSHIP": "FAITH BASED ORGANIZATION", "ZONE": "EASTERN", "FACILITY_NAME": "ARAFA NHC", "FACILITY_ID_NUMBER": "100162-7", "LONGITUDE": "39.21271", "FACILITY TYPE": "DISPENSARY", "COUNCIL": "KINONDONI URBAN", "LATITUDE": "-6.79208", "_id": 90, "REGION": "DAR ES SALAAM", "OPERATING_STATUS": "OPERATING"}, {"RATING": "0", "COMMON FACILITY HEALTH NAME": "ARAFA KIGOGO FRESH", "OWNERSHIP": "PRIVATE", "ZONE": "EASTERN", "FACILITY_NAME": "ARAFA NEEMA", "FACILITY_ID_NUMBER": "100163-5", "LONGITUDE": "39.122823", "FACILITY TYPE": "DISPENSARY", "COUNCIL": "ILALA URBAN", "LATITUDE": "-6.915506", "_id": 91, "REGION": "DAR ES SALAAM", "OPERATING_STATUS": "OPERATING"}, {"RATING": "0", "COMMON FACILITY HEALTH NAME": "ARAFA SAMASI", "OWNERSHIP": "FAITH BASED ORGANIZATION", "ZONE": "EASTERN", "FACILITY_NAME": "ARAFA RANGITATU", "FACILITY_ID_NUMBER": "100164-3", "LONGITUDE": "39.270485", "FACILITY TYPE": "DISPENSARY", "COUNCIL": "TEMEKE URBAN", "LATITUDE": "-6.918501", "_id": 92, "REGION": "DAR ES SALAAM", "OPERATING_STATUS": "OPERATING"}, {"RATING": "0", "COMMON FACILITY HEALTH NAME": "ARAFA SEGEREA", "OWNERSHIP": "PRIVATE", "ZONE": "EASTERN", "FACILITY_NAME": "ARAFA SES CHARITABLE", "FACILITY_ID_NUMBER": "100166-8", "LONGITUDE": "39.196949", "FACILITY TYPE": "DISPENSARY", "COUNCIL": "ILALA URBAN", "LATITUDE": "-6.844491", "_id": 93, "REGION": "DAR ES SALAAM", "OPERATING_STATUS": "OPERATING"}, {"RATING": "0", "COMMON FACILITY HEALTH NAME": "TEMBO MGWAZA DISPENSARY", "OWNERSHIP": "PRIVATE", "ZONE": "EASTERN", "FACILITY_NAME": "ARAFA TEMBO MGWAZA", "FACILITY_ID_NUMBER": "100167-6", "LONGITUDE": "39.189662", "FACILITY TYPE": "DISPENSARY", "COUNCIL": "ILALA URBAN", "LATITUDE": "-6.826625", "_id": 94, "REGION": "DAR ES SALAAM", "OPERATING_STATUS": "OPERATING"}, {"RATING": "0", "COMMON FACILITY HEALTH NAME": "ARAFA UGWENO H/C", "OWNERSHIP": "FAITH BASED ORGANIZATION", "ZONE": "EASTERN", "FACILITY_NAME": "ARAFA UGWENO", "FACILITY_ID_NUMBER": "100168-4", "LONGITUDE": "39.259083", "FACILITY TYPE": "HEALTH CENTRE", "COUNCIL": "TEMEKE URBAN", "LATITUDE": "-6.867199", "_id": 95, "REGION": "DAR ES SALAAM", "OPERATING_STATUS": "OPERATING"}, {"RATING": "0", "COMMON FACILITY HEALTH NAME": "QUICK MOSCOW", "OWNERSHIP": "PRIVATE", "ZONE": "EASTERN", "FACILITY_NAME": "ARAFA UPENDO", "FACILITY_ID_NUMBER": "100169-2", "LONGITUDE": "39.2625", "FACILITY TYPE": "HEALTH CENTRE", "COUNCIL": "TEMEKE URBAN", "LATITUDE": "-6.85673", "_id": 96, "REGION": "DAR ES SALAAM", "OPERATING_STATUS": "OPERATING"}, {"RATING": "0", "COMMON FACILITY HEALTH NAME": "", "OWNERSHIP": "FAITH BASED ORGANIZATION", "ZONE": "EASTERN", "FACILITY_NAME": "ARAFA-KIPARANG'ANDA", "FACILITY_ID_NUMBER": "100171-8", "LONGITUDE": "39.1803", "FACILITY TYPE": "DISPENSARY", "COUNCIL": "MKURANGA", "LATITUDE": "-7.14991", "_id": 97, "REGION": "PWANI", "OPERATING_STATUS": "OPERATING"}, {"RATING": "0", "COMMON FACILITY HEALTH NAME": "TAYMA MSOMENI", "OWNERSHIP": "FAITH BASED ORGANIZATION", "ZONE": "EASTERN", "FACILITY_NAME": "ARAFA-MSOMEN", "FACILITY_ID_NUMBER": "100172-6", "LONGITUDE": null, "FACILITY TYPE": "DISPENSARY", "COUNCIL": "MKURANGA", "LATITUDE": null, "_id": 98, "REGION": "PWANI", "OPERATING_STATUS": "OPERATING"}, {"RATING": "0", "COMMON FACILITY HEALTH NAME": "ARASH", "OWNERSHIP": "FAITH BASED ORGANIZATION", "ZONE": "NORTHERN", "FACILITY_NAME": "ARASH", "FACILITY_ID_NUMBER": "100173-4", "LONGITUDE": "35.50596", "FACILITY TYPE": "DISPENSARY", "COUNCIL": "NGORONGORO", "LATITUDE": "-2.3769", "_id": 99, "REGION": "ARUSHA", "OPERATING_STATUS": "OPERATING"}, {"RATING": "0", "COMMON FACILITY HEALTH NAME": "", "OWNERSHIP": "PARASTATAL", "ZONE": "WESTERN", "FACILITY_NAME": "ARDHI", "FACILITY_ID_NUMBER": "100174-2", "LONGITUDE": "32.826", "FACILITY TYPE": "DISPENSARY", "COUNCIL": "TABORA URBAN", "LATITUDE": "-5.04005", "_id": 100, "REGION": "TABORA", "OPERATING_STATUS": "OPERATING"}, {"RATING": "0", "COMMON FACILITY HEALTH NAME": "", "OWNERSHIP": "PARASTATAL", "ZONE": "EASTERN", "FACILITY_NAME": "ARDHI INSTITUTE", "FACILITY_ID_NUMBER": "100176-7", "LONGITUDE": "37.67594", "FACILITY TYPE": "DISPENSARY", "COUNCIL": "MOROGORO URBAN", "LATITUDE": "-6.82639", "_id": 101, "REGION": "MOROGORO", "OPERATING_STATUS": "OPERATING"}, {"RATING": "0", "COMMON FACILITY HEALTH NAME": "MTI MMOJA", "OWNERSHIP": "PUBLIC", "ZONE": "NORTHERN", "FACILITY_NAME": "ARKATAN", "FACILITY_ID_NUMBER": "100179-1", "LONGITUDE": "36.1898", "FACILITY TYPE": "DISPENSARY", "COUNCIL": "MONDULI", "LATITUDE": "-3.24778", "_id": 102, "REGION": "ARUSHA", "OPERATING_STATUS": "OPERATING"}, {"RATING": "0", "COMMON FACILITY HEALTH NAME": "", "OWNERSHIP": "PUBLIC", "ZONE": "NORTHERN", "FACILITY_NAME": "ARRI", "FACILITY_ID_NUMBER": "100182-5", "LONGITUDE": null, "FACILITY TYPE": "DISPENSARY", "COUNCIL": "MBULU", "LATITUDE": null, "_id": 103, "REGION": "MANYARA", "OPERATING_STATUS": "OPERATING"}, {"RATING": "0", "COMMON FACILITY HEALTH NAME": "ARRI TSAAYO", "OWNERSHIP": "PUBLIC", "ZONE": "NORTHERN", "FACILITY_NAME": "ARRI TSAAYO", "FACILITY_ID_NUMBER": "100183-3", "LONGITUDE": "35.58945", "FACILITY TYPE": "DISPENSARY", "COUNCIL": "BABATI", "LATITUDE": "-4.24142", "_id": 104, "REGION": "MANYARA", "OPERATING_STATUS": "OPERATING"}, {"RATING": "0", "COMMON FACILITY HEALTH NAME": "MERU", "OWNERSHIP": "PUBLIC", "ZONE": "NORTHERN", "FACILITY_NAME": "ARUMERU", "FACILITY_ID_NUMBER": "100184-1", "LONGITUDE": "36.786839", "FACILITY TYPE": "HOSPITAL", "COUNCIL": "MERU", "LATITUDE": "-3.3706", "_id": 105, "REGION": "ARUSHA", "OPERATING_STATUS": "OPERATING"}, {"RATING": "0", "COMMON FACILITY HEALTH NAME": "ARUSHA & LABARATORY DISPENSARY", "OWNERSHIP": "PRIVATE", "ZONE": "NORTHERN", "FACILITY_NAME": "ARUSHA", "FACILITY_ID_NUMBER": "100185-8", "LONGITUDE": "36.70607", "FACILITY TYPE": "DISPENSARY", "COUNCIL": "ARUSHA URBAN", "LATITUDE": "-3.37955", "_id": 106, "REGION": "ARUSHA", "OPERATING_STATUS": "OPERATING"}, {"RATING": "0", "COMMON FACILITY HEALTH NAME": "KWA DR WANJARA", "OWNERSHIP": "PRIVATE", "ZONE": "NORTHERN", "FACILITY_NAME": "ARUSHA HOSPITAL FOR WOMEN", "FACILITY_ID_NUMBER": "100187-4", "LONGITUDE": "36.68535", "FACILITY TYPE": "HEALTH CENTRE", "COUNCIL": "ARUSHA URBAN", "LATITUDE": "-3.36106", "_id": 107, "REGION": "ARUSHA", "OPERATING_STATUS": "OPERATING"}, {"RATING": "0", "COMMON FACILITY HEALTH NAME": "", "OWNERSHIP": "FAITH BASED ORGANIZATION", "ZONE": "NORTHERN", "FACILITY_NAME": "ARUSHA LUTHERAN CENTER", "FACILITY_ID_NUMBER": "100188-2", "LONGITUDE": "36.6823", "FACILITY TYPE": "HOSPITAL", "COUNCIL": "ARUSHA URBAN", "LATITUDE": "-3.36626", "_id": 108, "REGION": "ARUSHA", "OPERATING_STATUS": "OPERATING"}, {"RATING": "0", "COMMON FACILITY HEALTH NAME": "KWA DR CHAMBA", "OWNERSHIP": "PRIVATE", "ZONE": "NORTHERN", "FACILITY_NAME": "ARUSHA MED CENTRE", "FACILITY_ID_NUMBER": "100189-0", "LONGITUDE": "36.698442", "FACILITY TYPE": "DISPENSARY", "COUNCIL": "ARUSHA URBAN", "LATITUDE": "-3.37636", "_id": 109, "REGION": "ARUSHA", "OPERATING_STATUS": "OPERATING"}, {"RATING": "0", "COMMON FACILITY HEALTH NAME": "", "OWNERSHIP": "PRIVATE", "ZONE": "NORTHERN", "FACILITY_NAME": "ARUSHA SCHOOL", "FACILITY_ID_NUMBER": "100190-8", "LONGITUDE": null, "FACILITY TYPE": "DISPENSARY", "COUNCIL": "ARUSHA URBAN", "LATITUDE": null, "_id": 110, "REGION": "ARUSHA", "OPERATING_STATUS": "OPERATING"}, {"RATING": "0", "COMMON FACILITY HEALTH NAME": "", "OWNERSHIP": "PRIVATE", "ZONE": "NORTHERN", "FACILITY_NAME": "ARUSHA X-RAY CENTER", "FACILITY_ID_NUMBER": "100192-4", "LONGITUDE": "36.699", "FACILITY TYPE": "DISPENSARY", "COUNCIL": "ARUSHA URBAN", "LATITUDE": "-3.36579", "_id": 111, "REGION": "ARUSHA", "OPERATING_STATUS": "OPERATING"}, {"RATING": "0", "COMMON FACILITY HEALTH NAME": "ASAMATWA", "OWNERSHIP": "PUBLIC", "ZONE": "NORTHERN", "FACILITY_NAME": "ASAMATWA", "FACILITY_ID_NUMBER": "100193-2", "LONGITUDE": "36.56773", "FACILITY TYPE": "DISPENSARY", "COUNCIL": "KITETO", "LATITUDE": "-5.31823", "_id": 112, "REGION": "MANYARA", "OPERATING_STATUS": "OPERATING"}, {"RATING": "0", "COMMON FACILITY HEALTH NAME": "ASANJE", "OWNERSHIP": "PUBLIC", "ZONE": "CENTRAL", "FACILITY_NAME": "ASANJE", "FACILITY_ID_NUMBER": "100194-0", "LONGITUDE": "35.72171", "FACILITY TYPE": "DISPENSARY", "COUNCIL": "BAHI", "LATITUDE": "-5.734873", "_id": 113, "REGION": "DODOMA", "OPERATING_STATUS": "OPERATING"}, {"RATING": "0", "COMMON FACILITY HEALTH NAME": "ZAHANATI YA ASANTE NYERERE", "OWNERSHIP": "PUBLIC", "ZONE": "WESTERN", "FACILITY_NAME": "ASANTE NYERERE", "FACILITY_ID_NUMBER": "100195-7", "LONGITUDE": "30.348197", "FACILITY TYPE": "DISPENSARY", "COUNCIL": "KASULU", "LATITUDE": "-4.866151", "_id": 114, "REGION": "KIGOMA", "OPERATING_STATUS": "OPERATING"}, {"RATING": "0", "COMMON FACILITY HEALTH NAME": "", "OWNERSHIP": "PUBLIC", "ZONE": "CENTRAL", "FACILITY_NAME": "ATTA", "FACILITY_ID_NUMBER": "100197-3", "LONGITUDE": "35.903687", "FACILITY TYPE": "DISPENSARY", "COUNCIL": "KONDOA", "LATITUDE": "-4.527112", "_id": 115, "REGION": "DODOMA", "OPERATING_STATUS": "OPERATING"}, {"RATING": "0", "COMMON FACILITY HEALTH NAME": "AVIATION", "OWNERSHIP": "PRIVATE", "ZONE": "EASTERN", "FACILITY_NAME": "AVIATION", "FACILITY_ID_NUMBER": "100200-5", "LONGITUDE": "39.25728", "FACILITY TYPE": "DISPENSARY", "COUNCIL": "ILALA URBAN", "LATITUDE": "-6.82779", "_id": 116, "REGION": "DAR ES SALAAM", "OPERATING_STATUS": "OPERATING"}, {"RATING": "0", "COMMON FACILITY HEALTH NAME": "", "OWNERSHIP": "PUBLIC", "ZONE": "NORTHERN", "FACILITY_NAME": "AYALABE", "FACILITY_ID_NUMBER": "100202-1", "LONGITUDE": "35.689692", "FACILITY TYPE": "DISPENSARY", "COUNCIL": "KARATU", "LATITUDE": "-3.35739", "_id": 117, "REGION": "ARUSHA", "OPERATING_STATUS": "OPERATING"}, {"RATING": "0", "COMMON FACILITY HEALTH NAME": "AYASANDA", "OWNERSHIP": "PUBLIC", "ZONE": "NORTHERN", "FACILITY_NAME": "AYASANDA", "FACILITY_ID_NUMBER": "100203-9", "LONGITUDE": "35.69565", "FACILITY TYPE": "DISPENSARY", "COUNCIL": "BABATI", "LATITUDE": "-4.33594", "_id": 118, "REGION": "MANYARA", "OPERATING_STATUS": "OPERATING"}, {"RATING": "0", "COMMON FACILITY HEALTH NAME": "AZANIA", "OWNERSHIP": "PRIVATE", "ZONE": "EASTERN", "FACILITY_NAME": "AZANIA", "FACILITY_ID_NUMBER": "100204-7", "LONGITUDE": "39.25362", "FACILITY TYPE": "DISPENSARY", "COUNCIL": "KINONDONI URBAN", "LATITUDE": "-6.81638", "_id": 119, "REGION": "DAR ES SALAAM", "OPERATING_STATUS": "OPERATING"}, {"RATING": "0", "COMMON FACILITY HEALTH NAME": "AZIMIO", "OWNERSHIP": "PUBLIC", "ZONE": "WESTERN", "FACILITY_NAME": "AZIMIO", "FACILITY_ID_NUMBER": "100205-4", "LONGITUDE": "32.80929", "FACILITY TYPE": "DISPENSARY", "COUNCIL": "UYUI", "LATITUDE": "-5.03", "_id": 120, "REGION": "TABORA", "OPERATING_STATUS": "OPERATING"}, {"RATING": "0", "COMMON FACILITY HEALTH NAME": "AZIMIO", "OWNERSHIP": "PUBLIC", "ZONE": "SOUTHERN", "FACILITY_NAME": "AZIMIO", "FACILITY_ID_NUMBER": "100207-0", "LONGITUDE": "37.2627", "FACILITY TYPE": "DISPENSARY", "COUNCIL": "TUNDURU", "LATITUDE": "-11.17379", "_id": 121, "REGION": "RUVUMA", "OPERATING_STATUS": "OPERATING"}, {"RATING": "0", "COMMON FACILITY HEALTH NAME": "B.O.T CLINIC", "OWNERSHIP": "PARASTATAL", "ZONE": "EASTERN", "FACILITY_NAME": "BANK OF TANZANIA HQ", "FACILITY_ID_NUMBER": "100210-4", "LONGITUDE": "39.29298", "FACILITY TYPE": "DISPENSARY", "COUNCIL": "ILALA URBAN", "LATITUDE": "-6.81464", "_id": 122, "REGION": "DAR ES SALAAM", "OPERATING_STATUS": "OPERATING"}, {"RATING": "0", "COMMON FACILITY HEALTH NAME": "MRARA", "OWNERSHIP": "PUBLIC", "ZONE": "NORTHERN", "FACILITY_NAME": "BABATI", "FACILITY_ID_NUMBER": "100211-2", "LONGITUDE": null, "FACILITY TYPE": "HOSPITAL", "COUNCIL": "BABATI URBAN", "LATITUDE": null, "_id": 123, "REGION": "MANYARA", "OPERATING_STATUS": "OPERATING"}, {"RATING": "0", "COMMON FACILITY HEALTH NAME": "BABAYU", "OWNERSHIP": "PUBLIC", "ZONE": "CENTRAL", "FACILITY_NAME": "BABAYU", "FACILITY_ID_NUMBER": "100214-6", "LONGITUDE": "35.703579", "FACILITY TYPE": "DISPENSARY", "COUNCIL": "CHEMBA", "LATITUDE": "-5.626108", "_id": 124, "REGION": "DODOMA", "OPERATING_STATUS": "OPERATING"}, {"RATING": "0", "COMMON FACILITY HEALTH NAME": "BABAYU", "OWNERSHIP": "PUBLIC", "ZONE": "CENTRAL", "FACILITY_NAME": "BABAYU", "FACILITY_ID_NUMBER": "100215-3", "LONGITUDE": "35.703269", "FACILITY TYPE": "DISPENSARY", "COUNCIL": "BAHI", "LATITUDE": "-5.638693", "_id": 125, "REGION": "DODOMA", "OPERATING_STATUS": "OPERATING"}, {"RATING": "0", "COMMON FACILITY HEALTH NAME": "BADUGU", "OWNERSHIP": "PUBLIC", "ZONE": "WESTERN", "FACILITY_NAME": "BADUGU", "FACILITY_ID_NUMBER": "100218-7", "LONGITUDE": null, "FACILITY TYPE": "DISPENSARY", "COUNCIL": "BUSEGA", "LATITUDE": null, "_id": 126, "REGION": "SIMIYU", "OPERATING_STATUS": "OPERATING"}, {"RATING": "0", "COMMON FACILITY HEALTH NAME": "BAGA", "OWNERSHIP": "PUBLIC", "ZONE": "NORTHERN", "FACILITY_NAME": "BAGA", "FACILITY_ID_NUMBER": "100220-3", "LONGITUDE": "38.42585", "FACILITY TYPE": "DISPENSARY", "COUNCIL": "BUMBULI", "LATITUDE": "-4.7721", "_id": 127, "REGION": "TANGA", "OPERATING_STATUS": "OPERATING"}, {"RATING": "0", "COMMON FACILITY HEALTH NAME": "BAGAMOYO DISTR HOSPITAL", "OWNERSHIP": "PUBLIC", "ZONE": "EASTERN", "FACILITY_NAME": "BAGAMOYO", "FACILITY_ID_NUMBER": "100221-1", "LONGITUDE": "38.5443", "FACILITY TYPE": "HOSPITAL", "COUNCIL": "BAGAMOYO", "LATITUDE": "-6.26231", "_id": 128, "REGION": "PWANI", "OPERATING_STATUS": "OPERATING"}, {"RATING": "0", "COMMON FACILITY HEALTH NAME": "BAGO", "OWNERSHIP": "PRIVATE", "ZONE": "NORTHERN", "FACILITY_NAME": "BAGO", "FACILITY_ID_NUMBER": "100225-2", "LONGITUDE": "39.03235", "FACILITY TYPE": "DISPENSARY", "COUNCIL": "MUHEZA", "LATITUDE": "-5.33036", "_id": 129, "REGION": "TANGA", "OPERATING_STATUS": "OPERATING"}, {"RATING": "0", "COMMON FACILITY HEALTH NAME": "BAHI HC", "OWNERSHIP": "PUBLIC", "ZONE": "CENTRAL", "FACILITY_NAME": "BAHI", "FACILITY_ID_NUMBER": "100227-8", "LONGITUDE": "35.312075", "FACILITY TYPE": "HEALTH CENTRE", "COUNCIL": "BAHI", "LATITUDE": "-5.96258", "_id": 130, "REGION": "DODOMA", "OPERATING_STATUS": "OPERATING"}, {"RATING": "0", "COMMON FACILITY HEALTH NAME": "BAHI MAKULU", "OWNERSHIP": "PUBLIC", "ZONE": "CENTRAL", "FACILITY_NAME": "BAHI MAKULU", "FACILITY_ID_NUMBER": "100228-6", "LONGITUDE": "35.451911", "FACILITY TYPE": "DISPENSARY", "COUNCIL": "BAHI", "LATITUDE": "-5.838564", "_id": 131, "REGION": "DODOMA", "OPERATING_STATUS": "OPERATING"}, {"RATING": "0", "COMMON FACILITY HEALTH NAME": "BAHI RC", "OWNERSHIP": "FAITH BASED ORGANIZATION", "ZONE": "CENTRAL", "FACILITY_NAME": "BAHI RC", "FACILITY_ID_NUMBER": "100229-4", "LONGITUDE": "35.312127", "FACILITY TYPE": "DISPENSARY", "COUNCIL": "BAHI", "LATITUDE": "-5.94521", "_id": 132, "REGION": "DODOMA", "OPERATING_STATUS": "OPERATING"}, {"RATING": "0", "COMMON FACILITY HEALTH NAME": "DR, GEDI", "OWNERSHIP": "PRIVATE", "ZONE": "WESTERN", "FACILITY_NAME": "BAKWATA", "FACILITY_ID_NUMBER": "100232-8", "LONGITUDE": "32.60182", "FACILITY TYPE": "DISPENSARY", "COUNCIL": "KAHAMA URBAN", "LATITUDE": "-3.82569", "_id": 133, "REGION": "SHINYANGA", "OPERATING_STATUS": "OPERATING"}, {"RATING": "0", "COMMON FACILITY HEALTH NAME": "BAKWATA NJIA PANDA", "OWNERSHIP": "FAITH BASED ORGANIZATION", "ZONE": "NORTHERN", "FACILITY_NAME": "BAKWATA NJIA PANDA", "FACILITY_ID_NUMBER": "100236-9", "LONGITUDE": "37.51853", "FACILITY TYPE": "DISPENSARY", "COUNCIL": "MOSHI", "LATITUDE": "-3.40915", "_id": 134, "REGION": "KILIMANJARO", "OPERATING_STATUS": "OPERATING"}, {"RATING": "0", "COMMON FACILITY HEALTH NAME": "BAKWATA DISPENSARY", "OWNERSHIP": "FAITH BASED ORGANIZATION", "ZONE": "WESTERN", "FACILITY_NAME": "BAKWATA", "FACILITY_ID_NUMBER": "100240-1", "LONGITUDE": "30.71802", "FACILITY TYPE": "DISPENSARY", "COUNCIL": "KIBONDO", "LATITUDE": "-3.58555", "_id": 135, "REGION": "KIGOMA", "OPERATING_STATUS": "OPERATING"}, {"RATING": "0", "COMMON FACILITY HEALTH NAME": "BAKWATA BUSERESERE", "OWNERSHIP": "FAITH BASED ORGANIZATION", "ZONE": "LAKE", "FACILITY_NAME": "BAKWATA", "FACILITY_ID_NUMBER": "100248-4", "LONGITUDE": null, "FACILITY TYPE": "DISPENSARY", "COUNCIL": "CHATO", "LATITUDE": null, "_id": 136, "REGION": "GEITA", "OPERATING_STATUS": "OPERATING"}, {"RATING": "0", "COMMON FACILITY HEALTH NAME": "", "OWNERSHIP": "FAITH BASED ORGANIZATION", "ZONE": "SOUTHERN", "FACILITY_NAME": "BAKWATA", "FACILITY_ID_NUMBER": "100249-2", "LONGITUDE": null, "FACILITY TYPE": "DISPENSARY", "COUNCIL": "KILWA", "LATITUDE": null, "_id": 137, "REGION": "LINDI", "OPERATING_STATUS": "OPERATING"}, {"RATING": "0", "COMMON FACILITY HEALTH NAME": "BAKWATA", "OWNERSHIP": "FAITH BASED ORGANIZATION", "ZONE": "EASTERN", "FACILITY_NAME": "BAKWATA - MANG'ULA", "FACILITY_ID_NUMBER": "100253-4", "LONGITUDE": null, "FACILITY TYPE": "DISPENSARY", "COUNCIL": "KILOMBERO", "LATITUDE": null, "_id": 138, "REGION": "MOROGORO", "OPERATING_STATUS": "OPERATING"}, {"RATING": "0", "COMMON FACILITY HEALTH NAME": "BAKWATA (RIKA)", "OWNERSHIP": "PRIVATE", "ZONE": "NORTHERN", "FACILITY_NAME": "RIKA", "FACILITY_ID_NUMBER": "100255-9", "LONGITUDE": null, "FACILITY TYPE": "DISPENSARY", "COUNCIL": "SAME", "LATITUDE": null, "_id": 139, "REGION": "KILIMANJARO", "OPERATING_STATUS": "OPERATING"}, {"RATING": "0", "COMMON FACILITY HEALTH NAME": "", "OWNERSHIP": "FAITH BASED ORGANIZATION", "ZONE": "WESTERN", "FACILITY_NAME": "BAKWATA BUKUNDI", "FACILITY_ID_NUMBER": "100257-5", "LONGITUDE": "34.52769", "FACILITY TYPE": "DISPENSARY", "COUNCIL": "MEATU", "LATITUDE": "-3.89708", "_id": 140, "REGION": "SIMIYU", "OPERATING_STATUS": "OPERATING"}, {"RATING": "0", "COMMON FACILITY HEALTH NAME": "BAKWATA", "OWNERSHIP": "FAITH BASED ORGANIZATION", "ZONE": "WESTERN", "FACILITY_NAME": "BAKWATA I", "FACILITY_ID_NUMBER": "100262-5", "LONGITUDE": null, "FACILITY TYPE": "DISPENSARY", "COUNCIL": "NZEGA", "LATITUDE": null, "_id": 141, "REGION": "TABORA", "OPERATING_STATUS": "OPERATING"}, {"RATING": "0", "COMMON FACILITY HEALTH NAME": "BAKWATA", "OWNERSHIP": "FAITH BASED ORGANIZATION", "ZONE": "EASTERN", "FACILITY_NAME": "BAKWATA LULU", "FACILITY_ID_NUMBER": "100267-4", "LONGITUDE": null, "FACILITY TYPE": "DISPENSARY", "COUNCIL": "KIBAHA URBAN", "LATITUDE": null, "_id": 142, "REGION": "PWANI", "OPERATING_STATUS": "OPERATING"}, {"RATING": "0", "COMMON FACILITY HEALTH NAME": "", "OWNERSHIP": "FAITH BASED ORGANIZATION", "ZONE": "WESTERN", "FACILITY_NAME": "BAKWATA MAGANZO", "FACILITY_ID_NUMBER": "100268-2", "LONGITUDE": "34.30728", "FACILITY TYPE": "DISPENSARY", "COUNCIL": "MEATU", "LATITUDE": "-3.5243", "_id": 143, "REGION": "SIMIYU", "OPERATING_STATUS": "OPERATING"}, {"RATING": "0", "COMMON FACILITY HEALTH NAME": "MAJENGO BAKWATA", "OWNERSHIP": "FAITH BASED ORGANIZATION", "ZONE": "WESTERN", "FACILITY_NAME": "BAKWATA MAJENGO", "FACILITY_ID_NUMBER": "100269-0", "LONGITUDE": "33.41753", "FACILITY TYPE": "DISPENSARY", "COUNCIL": "SHINYANGA URBAN", "LATITUDE": "-3.66767", "_id": 144, "REGION": "SHINYANGA", "OPERATING_STATUS": "OPERATING"}, {"RATING": "0", "COMMON FACILITY HEALTH NAME": "", "OWNERSHIP": "PRIVATE", "ZONE": "WESTERN", "FACILITY_NAME": "BAKWATA MBIKA", "FACILITY_ID_NUMBER": "100272-4", "LONGITUDE": "32.2451", "FACILITY TYPE": "DISPENSARY", "COUNCIL": "USHETU", "LATITUDE": "-4.18819", "_id": 145, "REGION": "SHINYANGA", "OPERATING_STATUS": "OPERATING"}, {"RATING": "0", "COMMON FACILITY HEALTH NAME": "MUHAJIRINA BAKWATA DISPANSARY", "OWNERSHIP": "FAITH BASED ORGANIZATION", "ZONE": "WESTERN", "FACILITY_NAME": "BAKWATA MUJAHIDINA", "FACILITY_ID_NUMBER": "100276-5", "LONGITUDE": "33.4252", "FACILITY TYPE": "DISPENSARY", "COUNCIL": "SHINYANGA URBAN", "LATITUDE": "-3.6715", "_id": 146, "REGION": "SHINYANGA", "OPERATING_STATUS": "OPERATING"}, {"RATING": "0", "COMMON FACILITY HEALTH NAME": "BAKWATA", "OWNERSHIP": "FAITH BASED ORGANIZATION", "ZONE": "NORTHERN", "FACILITY_NAME": "BAKWATA STR. 11", "FACILITY_ID_NUMBER": "100280-7", "LONGITUDE": "39.10202", "FACILITY TYPE": "DISPENSARY", "COUNCIL": "TANGA URBAN", "LATITUDE": "-5.07968", "_id": 147, "REGION": "TANGA", "OPERATING_STATUS": "OPERATING"}, {"RATING": "0", "COMMON FACILITY HEALTH NAME": "", "OWNERSHIP": "PRIVATE", "ZONE": "EASTERN", "FACILITY_NAME": "BAKWATA TABATA CHANG'OMBE", "FACILITY_ID_NUMBER": "100282-3", "LONGITUDE": null, "FACILITY TYPE": "DISPENSARY", "COUNCIL": "ILALA URBAN", "LATITUDE": null, "_id": 148, "REGION": "DAR ES SALAAM", "OPERATING_STATUS": "OPERATING"}, {"RATING": "0", "COMMON FACILITY HEALTH NAME": "UHURU DISPENSARY", "OWNERSHIP": "FAITH BASED ORGANIZATION", "ZONE": "WESTERN", "FACILITY_NAME": "BAKWATA UHURU", "FACILITY_ID_NUMBER": "100284-9", "LONGITUDE": "33.42593", "FACILITY TYPE": "DISPENSARY", "COUNCIL": "SHINYANGA URBAN", "LATITUDE": "-3.67146", "_id": 149, "REGION": "SHINYANGA", "OPERATING_STATUS": "OPERATING"}, {"RATING": "0", "COMMON FACILITY HEALTH NAME": "BAKWATA", "OWNERSHIP": "PRIVATE", "ZONE": "WESTERN", "FACILITY_NAME": "BAKWATA ULYANKULU", "FACILITY_ID_NUMBER": "100285-6", "LONGITUDE": null, "FACILITY TYPE": "DISPENSARY", "COUNCIL": "KALIUA", "LATITUDE": null, "_id": 150, "REGION": "TABORA", "OPERATING_STATUS": "OPERATING"}, {"RATING": "0", "COMMON FACILITY HEALTH NAME": "BALANG'A", "OWNERSHIP": "PUBLIC", "ZONE": "NORTHERN", "FACILITY_NAME": "BALANG'A", "FACILITY_ID_NUMBER": "100287-2", "LONGITUDE": "37.57582", "FACILITY TYPE": "DISPENSARY", "COUNCIL": "KILINDI", "LATITUDE": "-5.31329", "_id": 151, "REGION": "TANGA", "OPERATING_STATUS": "OPERATING"}, {"RATING": "0", "COMMON FACILITY HEALTH NAME": "BALANGDALALU", "OWNERSHIP": "FAITH BASED ORGANIZATION", "ZONE": "NORTHERN", "FACILITY_NAME": "BALANGDALALU", "FACILITY_ID_NUMBER": "100288-0", "LONGITUDE": "35.2756", "FACILITY TYPE": "HEALTH CENTRE", "COUNCIL": "HANANG", "LATITUDE": "-4.64209", "_id": 152, "REGION": "MANYARA", "OPERATING_STATUS": "OPERATING"}, {"RATING": "0", "COMMON FACILITY HEALTH NAME": "BALATOGWA DISPENSARY", "OWNERSHIP": "PUBLIC", "ZONE": "LAKE", "FACILITY_NAME": "BALATOGWA", "FACILITY_ID_NUMBER": "100289-8", "LONGITUDE": "32.64912", "FACILITY TYPE": "DISPENSARY", "COUNCIL": "SENGEREMA", "LATITUDE": "-2.70638", "_id": 153, "REGION": "MWANZA", "OPERATING_STATUS": "OPERATING"}, {"RATING": "0", "COMMON FACILITY HEALTH NAME": "BALENI", "OWNERSHIP": "PUBLIC", "ZONE": "EASTERN", "FACILITY_NAME": "BALENI", "FACILITY_ID_NUMBER": "100290-6", "LONGITUDE": "39.806575", "FACILITY TYPE": "DISPENSARY", "COUNCIL": "MAFIA", "LATITUDE": "-7.873031", "_id": 154, "REGION": "PWANI", "OPERATING_STATUS": "OPERATING"}, {"RATING": "0", "COMMON FACILITY HEALTH NAME": "BAMBA MAVENGERO", "OWNERSHIP": "PUBLIC", "ZONE": "NORTHERN", "FACILITY_NAME": "BAMBA MAVENGERO", "FACILITY_ID_NUMBER": "100295-5", "LONGITUDE": "38.7966", "FACILITY TYPE": "DISPENSARY", "COUNCIL": "MKINGA", "LATITUDE": "-4.97254", "_id": 155, "REGION": "TANGA", "OPERATING_STATUS": "OPERATING"}, {"RATING": "0", "COMMON FACILITY HEALTH NAME": "BANAWANU", "OWNERSHIP": "PUBLIC", "ZONE": "SOUTHERN HIGHLANDS", "FACILITY_NAME": "BANAWANU", "FACILITY_ID_NUMBER": "100302-9", "LONGITUDE": null, "FACILITY TYPE": "DISPENSARY", "COUNCIL": "WANGING'OMBE", "LATITUDE": null, "_id": 156, "REGION": "NJOMBE", "OPERATING_STATUS": "OPERATING"}, {"RATING": "0", "COMMON FACILITY HEALTH NAME": "SAME KKKT", "OWNERSHIP": "PRIVATE", "ZONE": "NORTHERN", "FACILITY_NAME": "KKKT SAME", "FACILITY_ID_NUMBER": "107266-9", "LONGITUDE": null, "FACILITY TYPE": "DISPENSARY", "COUNCIL": "SAME", "LATITUDE": null, "_id": 5385, "REGION": "KILIMANJARO", "OPERATING_STATUS": "OPERATING"}, {"RATING": "0", "COMMON FACILITY HEALTH NAME": "BANDARI", "OWNERSHIP": "PARASTATAL", "ZONE": "NORTHERN", "FACILITY_NAME": "BANDARI", "FACILITY_ID_NUMBER": "100304-5", "LONGITUDE": "39.10501", "FACILITY TYPE": "DISPENSARY", "COUNCIL": "TANGA URBAN", "LATITUDE": "-5.07008", "_id": 158, "REGION": "TANGA", "OPERATING_STATUS": "OPERATING"}, {"RATING": "0", "COMMON FACILITY HEALTH NAME": "BANDARI HRALTH CENTRE", "OWNERSHIP": "PARASTATAL", "ZONE": "EASTERN", "FACILITY_NAME": "BANDARI", "FACILITY_ID_NUMBER": "100305-2", "LONGITUDE": "39.28889", "FACILITY TYPE": "HEALTH CENTRE", "COUNCIL": "TEMEKE URBAN", "LATITUDE": "-6.832175", "_id": 159, "REGION": "DAR ES SALAAM", "OPERATING_STATUS": "OPERATING"}, {"RATING": "0", "COMMON FACILITY HEALTH NAME": "BANEMHI", "OWNERSHIP": "PUBLIC", "ZONE": "WESTERN", "FACILITY_NAME": "BANEMHI", "FACILITY_ID_NUMBER": "100306-0", "LONGITUDE": "34.0455", "FACILITY TYPE": "DISPENSARY", "COUNCIL": "BARIADI", "LATITUDE": "-2.62339", "_id": 160, "REGION": "SIMIYU", "OPERATING_STATUS": "OPERATING"}, {"RATING": "0", "COMMON FACILITY HEALTH NAME": "BANGALALA", "OWNERSHIP": "PUBLIC", "ZONE": "NORTHERN", "FACILITY_NAME": "BANGALALA", "FACILITY_ID_NUMBER": "100307-8", "LONGITUDE": "37.8482", "FACILITY TYPE": "DISPENSARY", "COUNCIL": "SAME", "LATITUDE": "-4.23113", "_id": 161, "REGION": "KILIMANJARO", "OPERATING_STATUS": "OPERATING"}, {"RATING": "0", "COMMON FACILITY HEALTH NAME": "SASI", "OWNERSHIP": "PUBLIC", "ZONE": "NORTHERN", "FACILITY_NAME": "BANGATA", "FACILITY_ID_NUMBER": "100308-6", "LONGITUDE": "36.74753", "FACILITY TYPE": "DISPENSARY", "COUNCIL": "ARUSHA", "LATITUDE": "-3.35845", "_id": 162, "REGION": "ARUSHA", "OPERATING_STATUS": "OPERATING"}, {"RATING": "0", "COMMON FACILITY HEALTH NAME": "", "OWNERSHIP": "FAITH BASED ORGANIZATION", "ZONE": "NORTHERN", "FACILITY_NAME": "BANGATA LUTHERAN", "FACILITY_ID_NUMBER": "100309-4", "LONGITUDE": "36.7448", "FACILITY TYPE": "DISPENSARY", "COUNCIL": "ARUSHA", "LATITUDE": "-3.33578", "_id": 163, "REGION": "ARUSHA", "OPERATING_STATUS": "OPERATING"}, {"RATING": "0", "COMMON FACILITY HEALTH NAME": "BANGWE", "OWNERSHIP": "PUBLIC", "ZONE": "WESTERN", "FACILITY_NAME": "BANGWE", "FACILITY_ID_NUMBER": "100310-2", "LONGITUDE": "29.613642", "FACILITY TYPE": "DISPENSARY", "COUNCIL": "KIGOMA-UJIJI URBAN", "LATITUDE": "-4.906827", "_id": 164, "REGION": "KIGOMA", "OPERATING_STATUS": "OPERATING"}, {"RATING": "0", "COMMON FACILITY HEALTH NAME": "BANJA", "OWNERSHIP": "PUBLIC", "ZONE": "EASTERN", "FACILITY_NAME": "BANJA", "FACILITY_ID_NUMBER": "100312-8", "LONGITUDE": null, "FACILITY TYPE": "DISPENSARY", "COUNCIL": "MAFIA", "LATITUDE": null, "_id": 165, "REGION": "PWANI", "OPERATING_STATUS": "OPERATING"}, {"RATING": "0", "COMMON FACILITY HEALTH NAME": "", "OWNERSHIP": "PARASTATAL", "ZONE": "LAKE", "FACILITY_NAME": "BANK OF TANZANIA", "FACILITY_ID_NUMBER": "100313-6", "LONGITUDE": "32.9066", "FACILITY TYPE": "DISPENSARY", "COUNCIL": "NYAMAGANA URBAN", "LATITUDE": "-2.51775", "_id": 166, "REGION": "MWANZA", "OPERATING_STATUS": "OPERATING"}, {"RATING": "0", "COMMON FACILITY HEALTH NAME": "BANK OF TANZANIA", "OWNERSHIP": "PARASTATAL", "ZONE": "SOUTHERN HIGHLANDS", "FACILITY_NAME": "BANK OF TANZANIA", "FACILITY_ID_NUMBER": "100314-4", "LONGITUDE": null, "FACILITY TYPE": "DISPENSARY", "COUNCIL": "MBEYA URBAN", "LATITUDE": null, "_id": 167, "REGION": "MBEYA", "OPERATING_STATUS": "OPERATING"}, {"RATING": "0", "COMMON FACILITY HEALTH NAME": "BANKOLO", "OWNERSHIP": "PUBLIC", "ZONE": "CENTRAL", "FACILITY_NAME": "BANKOLO", "FACILITY_ID_NUMBER": "100315-1", "LONGITUDE": "35.451914", "FACILITY TYPE": "DISPENSARY", "COUNCIL": "BAHI", "LATITUDE": "-5.838545", "_id": 168, "REGION": "DODOMA", "OPERATING_STATUS": "OPERATING"}, {"RATING": "0", "COMMON FACILITY HEALTH NAME": "BANYIBANYI", "OWNERSHIP": "PUBLIC", "ZONE": "CENTRAL", "FACILITY_NAME": "BANYIBANYI", "FACILITY_ID_NUMBER": "100316-9", "LONGITUDE": "36.20378", "FACILITY TYPE": "DISPENSARY", "COUNCIL": "KONGWA", "LATITUDE": "-5.53073", "_id": 169, "REGION": "DODOMA", "OPERATING_STATUS": "OPERATING"}, {"RATING": "0", "COMMON FACILITY HEALTH NAME": "BAPTIST", "OWNERSHIP": "FAITH BASED ORGANIZATION", "ZONE": "WESTERN", "FACILITY_NAME": "BAPTIST", "FACILITY_ID_NUMBER": "100318-5", "LONGITUDE": "29.658572", "FACILITY TYPE": "HOSPITAL", "COUNCIL": "KIGOMA-UJIJI URBAN", "LATITUDE": "-4.885428", "_id": 170, "REGION": "KIGOMA", "OPERATING_STATUS": "OPERATING"}, {"RATING": "0", "COMMON FACILITY HEALTH NAME": "", "OWNERSHIP": "FAITH BASED ORGANIZATION", "ZONE": "SOUTHERN HIGHLANDS", "FACILITY_NAME": "BARA MISSION", "FACILITY_ID_NUMBER": "100319-3", "LONGITUDE": "32.8031", "FACILITY TYPE": "DISPENSARY", "COUNCIL": "MBOZI", "LATITUDE": "-8.80282", "_id": 171, "REGION": "MBEYA", "OPERATING_STATUS": "OPERATING"}, {"RATING": "0", "COMMON FACILITY HEALTH NAME": "", "OWNERSHIP": "FAITH BASED ORGANIZATION", "ZONE": "NORTHERN", "FACILITY_NAME": "BARAA RC", "FACILITY_ID_NUMBER": "100320-1", "LONGITUDE": "36.73671", "FACILITY TYPE": "DISPENSARY", "COUNCIL": "ARUSHA URBAN", "LATITUDE": "-3.38882", "_id": 172, "REGION": "ARUSHA", "OPERATING_STATUS": "OPERATING"}, {"RATING": "0", "COMMON FACILITY HEALTH NAME": "WAZAZI CHEYO", "OWNERSHIP": "PRIVATE", "ZONE": "WESTERN", "FACILITY_NAME": "BARAKA CHEYO", "FACILITY_ID_NUMBER": "100321-9", "LONGITUDE": "33.3592", "FACILITY TYPE": "DISPENSARY", "COUNCIL": "IGUNGA", "LATITUDE": "-4.05875", "_id": 173, "REGION": "TABORA", "OPERATING_STATUS": "OPERATING"}, {"RATING": "0", "COMMON FACILITY HEALTH NAME": "BARAKA DISPENSARY", "OWNERSHIP": "PRIVATE", "ZONE": "NORTHERN", "FACILITY_NAME": "BARAKA", "FACILITY_ID_NUMBER": "100322-7", "LONGITUDE": "35.676263", "FACILITY TYPE": "DISPENSARY", "COUNCIL": "KARATU", "LATITUDE": "-3.343897", "_id": 174, "REGION": "ARUSHA", "OPERATING_STATUS": "OPERATING"}, {"RATING": "0", "COMMON FACILITY HEALTH NAME": "BARAKI", "OWNERSHIP": "PUBLIC", "ZONE": "LAKE", "FACILITY_NAME": "BARAKI", "FACILITY_ID_NUMBER": "100323-5", "LONGITUDE": "33.9261", "FACILITY TYPE": "DISPENSARY", "COUNCIL": "RORYA", "LATITUDE": "-1.38045", "_id": 175, "REGION": "MARA", "OPERATING_STATUS": "OPERATING"}, {"RATING": "0", "COMMON FACILITY HEALTH NAME": "BARAKI", "OWNERSHIP": "FAITH BASED ORGANIZATION", "ZONE": "LAKE", "FACILITY_NAME": "BARAKI SISTERS", "FACILITY_ID_NUMBER": "100324-3", "LONGITUDE": "33.968", "FACILITY TYPE": "HEALTH CENTRE", "COUNCIL": "RORYA", "LATITUDE": "-1.36842", "_id": 176, "REGION": "MARA", "OPERATING_STATUS": "OPERATING"}, {"RATING": "0", "COMMON FACILITY HEALTH NAME": "BARANGA", "OWNERSHIP": "PUBLIC", "ZONE": "LAKE", "FACILITY_NAME": "BARANGA", "FACILITY_ID_NUMBER": "100325-0", "LONGITUDE": "34.22873", "FACILITY TYPE": "DISPENSARY", "COUNCIL": "BUTIAMA", "LATITUDE": "-1.68392", "_id": 177, "REGION": "MARA", "OPERATING_STATUS": "OPERATING"}, {"RATING": "0", "COMMON FACILITY HEALTH NAME": "BARGISH", "OWNERSHIP": "PUBLIC", "ZONE": "NORTHERN", "FACILITY_NAME": "BARGISH", "FACILITY_ID_NUMBER": "100326-8", "LONGITUDE": "35.55756", "FACILITY TYPE": "DISPENSARY", "COUNCIL": "MBULU", "LATITUDE": "-3.76085", "_id": 178, "REGION": "MANYARA", "OPERATING_STATUS": "OPERATING"}, {"RATING": "0", "COMMON FACILITY HEALTH NAME": "SOMANDA", "OWNERSHIP": "PUBLIC", "ZONE": "WESTERN", "FACILITY_NAME": "BARIADI", "FACILITY_ID_NUMBER": "100327-6", "LONGITUDE": "33.99557", "FACILITY TYPE": "HOSPITAL", "COUNCIL": "BARIADI URBAN", "LATITUDE": "-2.7757", "_id": 179, "REGION": "SIMIYU", "OPERATING_STATUS": "OPERATING"}, {"RATING": "0", "COMMON FACILITY HEALTH NAME": "BARIADI MAGEREZA", "OWNERSHIP": "PUBLIC", "ZONE": "WESTERN", "FACILITY_NAME": "BARIADI-MAGEREZA", "FACILITY_ID_NUMBER": "100328-4", "LONGITUDE": null, "FACILITY TYPE": "DISPENSARY", "COUNCIL": "BARIADI URBAN", "LATITUDE": null, "_id": 180, "REGION": "SIMIYU", "OPERATING_STATUS": "OPERATING"}, {"RATING": "0", "COMMON FACILITY HEALTH NAME": "BARICK GOLD MINE", "OWNERSHIP": "PRIVATE", "ZONE": "WESTERN", "FACILITY_NAME": "BARICK GOLD MINE", "FACILITY_ID_NUMBER": "100329-2", "LONGITUDE": null, "FACILITY TYPE": "CLINIC", "COUNCIL": "KAHAMA URBAN", "LATITUDE": null, "_id": 181, "REGION": "SHINYANGA", "OPERATING_STATUS": "OPERATING"}, {"RATING": "0", "COMMON FACILITY HEALTH NAME": "", "OWNERSHIP": "PUBLIC", "ZONE": "SOUTHERN", "FACILITY_NAME": "BARIKIWA", "FACILITY_ID_NUMBER": "100330-0", "LONGITUDE": "37.9", "FACILITY TYPE": "DISPENSARY", "COUNCIL": "LIWALE", "LATITUDE": "-9.5", "_id": 182, "REGION": "LINDI", "OPERATING_STATUS": "OPERATING"}, {"RATING": "0", "COMMON FACILITY HEALTH NAME": "BARJOMOT", "OWNERSHIP": "PUBLIC", "ZONE": "NORTHERN", "FACILITY_NAME": "BARJOMOT", "FACILITY_ID_NUMBER": "100331-8", "LONGITUDE": "35.40241", "FACILITY TYPE": "DISPENSARY", "COUNCIL": "HANANG", "LATITUDE": "-4.38374", "_id": 183, "REGION": "MANYARA", "OPERATING_STATUS": "OPERATING"}, {"RATING": "0", "COMMON FACILITY HEALTH NAME": "", "OWNERSHIP": "PUBLIC", "ZONE": "WESTERN", "FACILITY_NAME": "BASANZA", "FACILITY_ID_NUMBER": "100332-6", "LONGITUDE": null, "FACILITY TYPE": "DISPENSARY", "COUNCIL": "UVINZA", "LATITUDE": null, "_id": 184, "REGION": "KIGOMA", "OPERATING_STATUS": "OPERATING"}, {"RATING": "0", "COMMON FACILITY HEALTH NAME": "BASHAY", "OWNERSHIP": "FAITH BASED ORGANIZATION", "ZONE": "NORTHERN", "FACILITY_NAME": "BASHAY", "FACILITY_ID_NUMBER": "100333-4", "LONGITUDE": "35.633384", "FACILITY TYPE": "DISPENSARY", "COUNCIL": "KARATU", "LATITUDE": "-3.34605", "_id": 185, "REGION": "ARUSHA", "OPERATING_STATUS": "OPERATING"}, {"RATING": "0", "COMMON FACILITY HEALTH NAME": "BASHAY", "OWNERSHIP": "FAITH BASED ORGANIZATION", "ZONE": "NORTHERN", "FACILITY_NAME": "BASHAY", "FACILITY_ID_NUMBER": "100334-2", "LONGITUDE": "35.18884", "FACILITY TYPE": "DISPENSARY", "COUNCIL": "MBULU", "LATITUDE": "-4.00537", "_id": 186, "REGION": "MANYARA", "OPERATING_STATUS": "OPERATING"}, {"RATING": "0", "COMMON FACILITY HEALTH NAME": "BUMA", "OWNERSHIP": "FAITH BASED ORGANIZATION", "ZONE": "NORTHERN", "FACILITY_NAME": "BASHNET", "FACILITY_ID_NUMBER": "100336-7", "LONGITUDE": "35.4209", "FACILITY TYPE": "HOSPITAL", "COUNCIL": "BABATI", "LATITUDE": "-4.21978", "_id": 187, "REGION": "MANYARA", "OPERATING_STATUS": "OPERATING"}, {"RATING": "0", "COMMON FACILITY HEALTH NAME": "", "OWNERSHIP": "PUBLIC", "ZONE": "NORTHERN", "FACILITY_NAME": "BASSODESH", "FACILITY_ID_NUMBER": "100338-3", "LONGITUDE": "35.1299", "FACILITY TYPE": "DISPENSARY", "COUNCIL": "HANANG", "LATITUDE": "-4.29842", "_id": 188, "REGION": "MANYARA", "OPERATING_STATUS": "OPERATING"}, {"RATING": "0", "COMMON FACILITY HEALTH NAME": "BASSODOWISH", "OWNERSHIP": "PUBLIC", "ZONE": "NORTHERN", "FACILITY_NAME": "BASSODOWISH", "FACILITY_ID_NUMBER": "100339-1", "LONGITUDE": "35.67453", "FACILITY TYPE": "DISPENSARY", "COUNCIL": "KARATU", "LATITUDE": "-3.4409", "_id": 189, "REGION": "ARUSHA", "OPERATING_STATUS": "OPERATING"}, {"RATING": "0", "COMMON FACILITY HEALTH NAME": "BASOTU", "OWNERSHIP": "PUBLIC", "ZONE": "NORTHERN", "FACILITY_NAME": "BASSOTU ZIWANI", "FACILITY_ID_NUMBER": "100340-9", "LONGITUDE": "35.0711", "FACILITY TYPE": "DISPENSARY", "COUNCIL": "HANANG", "LATITUDE": "-4.36285", "_id": 190, "REGION": "MANYARA", "OPERATING_STATUS": "OPERATING"}, {"RATING": "0", "COMMON FACILITY HEALTH NAME": "BAOBAB DISP", "OWNERSHIP": "PRIVATE", "ZONE": "EASTERN", "FACILITY_NAME": "BAUBAB", "FACILITY_ID_NUMBER": "100341-7", "LONGITUDE": "38.0411", "FACILITY TYPE": "DISPENSARY", "COUNCIL": "BAGAMOYO", "LATITUDE": "-6.36399", "_id": 191, "REGION": "PWANI", "OPERATING_STATUS": "OPERATING"}, {"RATING": "0", "COMMON FACILITY HEALTH NAME": "", "OWNERSHIP": "PUBLIC", "ZONE": "CENTRAL", "FACILITY_NAME": "BAURA", "FACILITY_ID_NUMBER": "100342-5", "LONGITUDE": "35.889613", "FACILITY TYPE": "DISPENSARY", "COUNCIL": "KONDOA", "LATITUDE": "-4.832222", "_id": 192, "REGION": "DODOMA", "OPERATING_STATUS": "OPERATING"}, {"RATING": "0", "COMMON FACILITY HEALTH NAME": "", "OWNERSHIP": "PRIVATE", "ZONE": "WESTERN", "FACILITY_NAME": "BEATRICE", "FACILITY_ID_NUMBER": "100343-3", "LONGITUDE": "32.80632", "FACILITY TYPE": "DISPENSARY", "COUNCIL": "TABORA URBAN", "LATITUDE": "-5.0202", "_id": 193, "REGION": "TABORA", "OPERATING_STATUS": "OPERATING"}, {"RATING": "0", "COMMON FACILITY HEALTH NAME": "BELEDI", "OWNERSHIP": "PUBLIC", "ZONE": "WESTERN", "FACILITY_NAME": "BELEDI", "FACILITY_ID_NUMBER": "100344-1", "LONGITUDE": "33.878", "FACILITY TYPE": "DISPENSARY", "COUNCIL": "KISHAPU", "LATITUDE": "-3.91533", "_id": 194, "REGION": "SHINYANGA", "OPERATING_STATUS": "OPERATING"}, {"RATING": "0", "COMMON FACILITY HEALTH NAME": "BEMBEZA", "OWNERSHIP": "PUBLIC", "ZONE": "EASTERN", "FACILITY_NAME": "BEMBEZA", "FACILITY_ID_NUMBER": "100345-8", "LONGITUDE": "38.79718", "FACILITY TYPE": "DISPENSARY", "COUNCIL": "KISARAWE", "LATITUDE": "-7.26653", "_id": 195, "REGION": "PWANI", "OPERATING_STATUS": "OPERATING"}, {"RATING": "0", "COMMON FACILITY HEALTH NAME": "BENDERA", "OWNERSHIP": "PUBLIC", "ZONE": "NORTHERN", "FACILITY_NAME": "BENDERA", "FACILITY_ID_NUMBER": "100348-2", "LONGITUDE": "38.0581", "FACILITY TYPE": "DISPENSARY", "COUNCIL": "SAME", "LATITUDE": "-4.59303", "_id": 196, "REGION": "KILIMANJARO", "OPERATING_STATUS": "OPERATING"}, {"RATING": "0", "COMMON FACILITY HEALTH NAME": "", "OWNERSHIP": "FAITH BASED ORGANIZATION", "ZONE": "EASTERN", "FACILITY_NAME": "BEREGA", "FACILITY_ID_NUMBER": "100350-8", "LONGITUDE": "37.145", "FACILITY TYPE": "HOSPITAL", "COUNCIL": "KILOSA", "LATITUDE": "-6.17856", "_id": 197, "REGION": "MOROGORO", "OPERATING_STATUS": "OPERATING"}, {"RATING": "0", "COMMON FACILITY HEALTH NAME": "", "OWNERSHIP": "PUBLIC", "ZONE": "CENTRAL", "FACILITY_NAME": "BEREGE", "FACILITY_ID_NUMBER": "100351-6", "LONGITUDE": "36.28938", "FACILITY TYPE": "DISPENSARY", "COUNCIL": "MPWAPWA", "LATITUDE": "-6.46832", "_id": 198, "REGION": "DODOMA", "OPERATING_STATUS": "OPERATING"}, {"RATING": "0", "COMMON FACILITY HEALTH NAME": "", "OWNERSHIP": "PUBLIC", "ZONE": "CENTRAL", "FACILITY_NAME": "BEREKO", "FACILITY_ID_NUMBER": "100352-4", "LONGITUDE": "35.74066", "FACILITY TYPE": "DISPENSARY", "COUNCIL": "KONDOA", "LATITUDE": "-4.449232", "_id": 199, "REGION": "DODOMA", "OPERATING_STATUS": "OPERATING"}, {"RATING": "0", "COMMON FACILITY HEALTH NAME": "BESHA", "OWNERSHIP": "PRIVATE", "ZONE": "NORTHERN", "FACILITY_NAME": "BESHA", "FACILITY_ID_NUMBER": "100354-0", "LONGITUDE": null, "FACILITY TYPE": "HEALTH CENTRE", "COUNCIL": "TANGA URBAN", "LATITUDE": null, "_id": 200, "REGION": "TANGA", "OPERATING_STATUS": "OPERATING"}, {"RATING": "0", "COMMON FACILITY HEALTH NAME": "BETHANIA", "OWNERSHIP": "PRIVATE", "ZONE": "LAKE", "FACILITY_NAME": "BETHANIA", "FACILITY_ID_NUMBER": "100355-7", "LONGITUDE": "34.3022", "FACILITY TYPE": "DISPENSARY", "COUNCIL": "RORYA", "LATITUDE": "-1.15964", "_id": 201, "REGION": "MARA", "OPERATING_STATUS": "OPERATING"}, {"RATING": "0", "COMMON FACILITY HEALTH NAME": "BETHSAIDA", "OWNERSHIP": "PRIVATE", "ZONE": "LAKE", "FACILITY_NAME": "BETHSAIDA", "FACILITY_ID_NUMBER": "100356-5", "LONGITUDE": "33.793888", "FACILITY TYPE": "HEALTH CENTRE", "COUNCIL": "MUSOMA URBAN", "LATITUDE": "-1.535599", "_id": 202, "REGION": "MARA", "OPERATING_STATUS": "OPERATING"}, {"RATING": "0", "COMMON FACILITY HEALTH NAME": "BHOKE", "OWNERSHIP": "PRIVATE", "ZONE": "EASTERN", "FACILITY_NAME": "BHOKE", "FACILITY_ID_NUMBER": "100357-3", "LONGITUDE": "38.95438", "FACILITY TYPE": "DISPENSARY", "COUNCIL": "KIBAHA URBAN", "LATITUDE": "-6.76615", "_id": 203, "REGION": "PWANI", "OPERATING_STATUS": "OPERATING"}, {"RATING": "0", "COMMON FACILITY HEALTH NAME": "BIGABIRO DISPENSARY", "OWNERSHIP": "FAITH BASED ORGANIZATION", "ZONE": "WESTERN", "FACILITY_NAME": "BIGABIRO", "FACILITY_ID_NUMBER": "100359-9", "LONGITUDE": "29.65511", "FACILITY TYPE": "DISPENSARY", "COUNCIL": "KIGOMA", "LATITUDE": "-4.80716", "_id": 204, "REGION": "KIGOMA", "OPERATING_STATUS": "OPERATING"}, {"RATING": "0", "COMMON FACILITY HEALTH NAME": "", "OWNERSHIP": "FAITH BASED ORGANIZATION", "ZONE": "LAKE", "FACILITY_NAME": "BIHARAMULO DDH", "FACILITY_ID_NUMBER": "100361-5", "LONGITUDE": "31.3447", "FACILITY TYPE": "HOSPITAL", "COUNCIL": "BIHARAMULO", "LATITUDE": "-2.63381", "_id": 205, "REGION": "KAGERA", "OPERATING_STATUS": "OPERATING"}, {"RATING": "0", "COMMON FACILITY HEALTH NAME": "KIGEGE", "OWNERSHIP": "FAITH BASED ORGANIZATION", "ZONE": "WESTERN", "FACILITY_NAME": "BIHARU", "FACILITY_ID_NUMBER": "100362-3", "LONGITUDE": "30.01874", "FACILITY TYPE": "HEALTH CENTRE", "COUNCIL": "BUHIGWE", "LATITUDE": "-4.32506", "_id": 206, "REGION": "KIGOMA", "OPERATING_STATUS": "OPERATING"}, {"RATING": "0", "COMMON FACILITY HEALTH NAME": "BIHAWANA", "OWNERSHIP": "FAITH BASED ORGANIZATION", "ZONE": "CENTRAL", "FACILITY_NAME": "BIHAWANA", "FACILITY_ID_NUMBER": "100363-1", "LONGITUDE": "35.639873", "FACILITY TYPE": "DISPENSARY", "COUNCIL": "DODOMA URBAN", "LATITUDE": "-6.272681", "_id": 207, "REGION": "DODOMA", "OPERATING_STATUS": "OPERATING"}, {"RATING": "0", "COMMON FACILITY HEALTH NAME": "", "OWNERSHIP": "FAITH BASED ORGANIZATION", "ZONE": "NORTHERN", "FACILITY_NAME": "BIKIRA MARIA MAMA WA HURUMA", "FACILITY_ID_NUMBER": "100364-9", "LONGITUDE": "36.6876", "FACILITY TYPE": "DISPENSARY", "COUNCIL": "ARUSHA URBAN", "LATITUDE": "-3.3657", "_id": 208, "REGION": "ARUSHA", "OPERATING_STATUS": "OPERATING"}, {"RATING": "0", "COMMON FACILITY HEALTH NAME": "KOJIFA", "OWNERSHIP": "FAITH BASED ORGANIZATION", "ZONE": "LAKE", "FACILITY_NAME": "BIKIRA MARIA MIUJIZA", "FACILITY_ID_NUMBER": "100365-6", "LONGITUDE": "34.34444", "FACILITY TYPE": "DISPENSARY", "COUNCIL": "TARIME URBAN", "LATITUDE": "-1.35619", "_id": 209, "REGION": "MARA", "OPERATING_STATUS": "OPERATING"}, {"RATING": "0", "COMMON FACILITY HEALTH NAME": "", "OWNERSHIP": "PUBLIC", "ZONE": "LAKE", "FACILITY_NAME": "BILULUMO", "FACILITY_ID_NUMBER": "100368-0", "LONGITUDE": null, "FACILITY TYPE": "DISPENSARY", "COUNCIL": "SENGEREMA", "LATITUDE": null, "_id": 210, "REGION": "MWANZA", "OPERATING_STATUS": "OPERATING"}, {"RATING": "0", "COMMON FACILITY HEALTH NAME": "", "OWNERSHIP": "PUBLIC", "ZONE": "EASTERN", "FACILITY_NAME": "BINGA", "FACILITY_ID_NUMBER": "100370-6", "LONGITUDE": "39.2333", "FACILITY TYPE": "DISPENSARY", "COUNCIL": "MKURANGA", "LATITUDE": "-7.26814", "_id": 211, "REGION": "PWANI", "OPERATING_STATUS": "OPERATING"}, {"RATING": "0", "COMMON FACILITY HEALTH NAME": "BINGI DENTAL CLINIC", "OWNERSHIP": "PRIVATE", "ZONE": "EASTERN", "FACILITY_NAME": "BINGI", "FACILITY_ID_NUMBER": "100371-4", "LONGITUDE": "39.231977", "FACILITY TYPE": "CLINIC", "COUNCIL": "ILALA URBAN", "LATITUDE": "-6.828636", "_id": 212, "REGION": "DAR ES SALAAM", "OPERATING_STATUS": "OPERATING"}, {"RATING": "0", "COMMON FACILITY HEALTH NAME": "BIOHEALTH DISPENSARY", "OWNERSHIP": "PRIVATE", "ZONE": "LAKE", "FACILITY_NAME": "BIO HEALTH", "FACILITY_ID_NUMBER": "100372-2", "LONGITUDE": "32.90155", "FACILITY TYPE": "DISPENSARY", "COUNCIL": "NYAMAGANA URBAN", "LATITUDE": "-2.51848", "_id": 213, "REGION": "MWANZA", "OPERATING_STATUS": "OPERATING"}, {"RATING": "0", "COMMON FACILITY HEALTH NAME": "BRIGITA", "OWNERSHIP": "PRIVATE", "ZONE": "SOUTHERN", "FACILITY_NAME": "BRIGITA", "FACILITY_ID_NUMBER": "100373-0", "LONGITUDE": "39.7138", "FACILITY TYPE": "DISPENSARY", "COUNCIL": "LINDI URBAN", "LATITUDE": "-9.99601", "_id": 214, "REGION": "LINDI", "OPERATING_STATUS": "OPERATING"}, {"RATING": "0", "COMMON FACILITY HEALTH NAME": "BIRO", "OWNERSHIP": "FAITH BASED ORGANIZATION", "ZONE": "EASTERN", "FACILITY_NAME": "BIRO", "FACILITY_ID_NUMBER": "100374-8", "LONGITUDE": "36.0545", "FACILITY TYPE": "DISPENSARY", "COUNCIL": "ULANGA", "LATITUDE": "-8.88045", "_id": 215, "REGION": "MOROGORO", "OPERATING_STATUS": "OPERATING"}, {"RATING": "0", "COMMON FACILITY HEALTH NAME": "BISUMWA", "OWNERSHIP": "PUBLIC", "ZONE": "LAKE", "FACILITY_NAME": "BISUMWA", "FACILITY_ID_NUMBER": "100375-5", "LONGITUDE": "33.81003", "FACILITY TYPE": "DISPENSARY", "COUNCIL": "BUTIAMA", "LATITUDE": "-1.60304", "_id": 216, "REGION": "MARA", "OPERATING_STATUS": "OPERATING"}, {"RATING": "0", "COMMON FACILITY HEALTH NAME": "", "OWNERSHIP": "PUBLIC", "ZONE": "WESTERN", "FACILITY_NAME": "BITALE", "FACILITY_ID_NUMBER": "100377-1", "LONGITUDE": "29.6833", "FACILITY TYPE": "HEALTH CENTRE", "COUNCIL": "KIGOMA", "LATITUDE": "-4.76667", "_id": 217, "REGION": "KIGOMA", "OPERATING_STATUS": "OPERATING"}, {"RATING": "0", "COMMON FACILITY HEALTH NAME": "BITARE DISPENSARY", "OWNERSHIP": "PUBLIC", "ZONE": "WESTERN", "FACILITY_NAME": "BITARE", "FACILITY_ID_NUMBER": "100378-9", "LONGITUDE": "30.70785", "FACILITY TYPE": "DISPENSARY", "COUNCIL": "KIBONDO", "LATITUDE": "-3.5579", "_id": 218, "REGION": "KIGOMA", "OPERATING_STATUS": "OPERATING"}, {"RATING": "0", "COMMON FACILITY HEALTH NAME": "BITOTO DISPENSARY", "OWNERSHIP": "PUBLIC", "ZONE": "LAKE", "FACILITY_NAME": "BITOTO", "FACILITY_ID_NUMBER": "100381-3", "LONGITUDE": "32.78429", "FACILITY TYPE": "DISPENSARY", "COUNCIL": "SENGEREMA", "LATITUDE": "-2.77137", "_id": 219, "REGION": "MWANZA", "OPERATING_STATUS": "OPERATING"}, {"RATING": "0", "COMMON FACILITY HEALTH NAME": "BITURANA DISPENSARY", "OWNERSHIP": "PUBLIC", "ZONE": "WESTERN", "FACILITY_NAME": "BITURANA", "FACILITY_ID_NUMBER": "100382-1", "LONGITUDE": "30.72354", "FACILITY TYPE": "DISPENSARY", "COUNCIL": "KIBONDO", "LATITUDE": "-3.62574", "_id": 220, "REGION": "KIGOMA", "OPERATING_STATUS": "OPERATING"}, {"RATING": "0", "COMMON FACILITY HEALTH NAME": "", "OWNERSHIP": "PRIVATE", "ZONE": "EASTERN", "FACILITY_NAME": "BLESSING", "FACILITY_ID_NUMBER": "100386-2", "LONGITUDE": "39.084504", "FACILITY TYPE": "DISPENSARY", "COUNCIL": "ILALA URBAN", "LATITUDE": "-6.994774", "_id": 221, "REGION": "DAR ES SALAAM", "OPERATING_STATUS": "OPERATING"}, {"RATING": "0", "COMMON FACILITY HEALTH NAME": "BOCHI", "OWNERSHIP": "PRIVATE", "ZONE": "EASTERN", "FACILITY_NAME": "BOCHI", "FACILITY_ID_NUMBER": "100388-8", "LONGITUDE": "39.13008", "FACILITY TYPE": "HOSPITAL", "COUNCIL": "KINONDONI URBAN", "LATITUDE": "-6.789444", "_id": 222, "REGION": "DAR ES SALAAM", "OPERATING_STATUS": "OPERATING"}, {"RATING": "0", "COMMON FACILITY HEALTH NAME": "BOKO DISPENSARY", "OWNERSHIP": "PUBLIC", "ZONE": "EASTERN", "FACILITY_NAME": "BOKO", "FACILITY_ID_NUMBER": "100390-4", "LONGITUDE": "39.15227", "FACILITY TYPE": "DISPENSARY", "COUNCIL": "KINONDONI URBAN", "LATITUDE": "-6.63118", "_id": 223, "REGION": "DAR ES SALAAM", "OPERATING_STATUS": "OPERATING"}, {"RATING": "0", "COMMON FACILITY HEALTH NAME": "ZAHANATI YA BOKO", "OWNERSHIP": "PUBLIC", "ZONE": "EASTERN", "FACILITY_NAME": "BOKO MNEMELA", "FACILITY_ID_NUMBER": "100391-2", "LONGITUDE": "38.9146", "FACILITY TYPE": "DISPENSARY", "COUNCIL": "KIBAHA", "LATITUDE": "-6.84198", "_id": 224, "REGION": "PWANI", "OPERATING_STATUS": "OPERATING"}, {"RATING": "0", "COMMON FACILITY HEALTH NAME": "", "OWNERSHIP": "PUBLIC", "ZONE": "CENTRAL", "FACILITY_NAME": "BOLISA", "FACILITY_ID_NUMBER": "100392-0", "LONGITUDE": "35.813142", "FACILITY TYPE": "DISPENSARY", "COUNCIL": "KONDOA", "LATITUDE": "-4.816344", "_id": 225, "REGION": "DODOMA", "OPERATING_STATUS": "OPERATING"}, {"RATING": "0", "COMMON FACILITY HEALTH NAME": "BOMA", "OWNERSHIP": "PUBLIC", "ZONE": "LAKE", "FACILITY_NAME": "BOMA", "FACILITY_ID_NUMBER": "100393-8", "LONGITUDE": "33.8627", "FACILITY TYPE": "DISPENSARY", "COUNCIL": "BUNDA", "LATITUDE": "-2.02401", "_id": 226, "REGION": "MARA", "OPERATING_STATUS": "OPERATING"}, {"RATING": "0", "COMMON FACILITY HEALTH NAME": "BOMA KICHAKAMIBA", "OWNERSHIP": "PUBLIC", "ZONE": "NORTHERN", "FACILITY_NAME": "BOMA", "FACILITY_ID_NUMBER": "100394-6", "LONGITUDE": null, "FACILITY TYPE": "DISPENSARY", "COUNCIL": "MKINGA", "LATITUDE": null, "_id": 227, "REGION": "TANGA", "OPERATING_STATUS": "OPERATING"}, {"RATING": "0", "COMMON FACILITY HEALTH NAME": "", "OWNERSHIP": "PRIVATE", "ZONE": "NORTHERN", "FACILITY_NAME": "BOMA CRCA", "FACILITY_ID_NUMBER": "100395-3", "LONGITUDE": "37.14844", "FACILITY TYPE": "DISPENSARY", "COUNCIL": "HAI", "LATITUDE": "-3.33632", "_id": 228, "REGION": "KILIMANJARO", "OPERATING_STATUS": "OPERATING"}, {"RATING": "0", "COMMON FACILITY HEALTH NAME": "", "OWNERSHIP": "PRIVATE", "ZONE": "NORTHERN", "FACILITY_NAME": "BOMA CRCB", "FACILITY_ID_NUMBER": "100396-1", "LONGITUDE": "37.14841", "FACILITY TYPE": "DISPENSARY", "COUNCIL": "HAI", "LATITUDE": "-3.33958", "_id": 229, "REGION": "KILIMANJARO", "OPERATING_STATUS": "OPERATING"}, {"RATING": "0", "COMMON FACILITY HEALTH NAME": "CHINI YA MTI", "OWNERSHIP": "PRIVATE", "ZONE": "NORTHERN", "FACILITY_NAME": "BOMA HEALTH CARE", "FACILITY_ID_NUMBER": "100398-7", "LONGITUDE": "37.15134", "FACILITY TYPE": "DISPENSARY", "COUNCIL": "HAI", "LATITUDE": "-3.333", "_id": 230, "REGION": "KILIMANJARO", "OPERATING_STATUS": "OPERATING"}, {"RATING": "0", "COMMON FACILITY HEALTH NAME": "BOMALANG'OMBE", "OWNERSHIP": "PUBLIC", "ZONE": "SOUTHERN HIGHLANDS", "FACILITY_NAME": "BOMA NG'OMBE", "FACILITY_ID_NUMBER": "100399-5", "LONGITUDE": "35.88238", "FACILITY TYPE": "DISPENSARY", "COUNCIL": "KILOLO", "LATITUDE": "-7.22937", "_id": 231, "REGION": "IRINGA", "OPERATING_STATUS": "OPERATING"}, {"RATING": "0", "COMMON FACILITY HEALTH NAME": "", "OWNERSHIP": "PUBLIC", "ZONE": "NORTHERN", "FACILITY_NAME": "BOMA NG'OMBE", "FACILITY_ID_NUMBER": "100400-1", "LONGITUDE": "37.1623", "FACILITY TYPE": "DISPENSARY", "COUNCIL": "HAI", "LATITUDE": "-3.32833", "_id": 232, "REGION": "KILIMANJARO", "OPERATING_STATUS": "OPERATING"}, {"RATING": "0", "COMMON FACILITY HEALTH NAME": "", "OWNERSHIP": "PUBLIC", "ZONE": "CENTRAL", "FACILITY_NAME": "BOMANI", "FACILITY_ID_NUMBER": "100401-9", "LONGITUDE": "34.4108", "FACILITY TYPE": "DISPENSARY", "COUNCIL": "IRAMBA", "LATITUDE": "-4.27944", "_id": 233, "REGION": "SINGIDA", "OPERATING_STATUS": "OPERATING"}, {"RATING": "0", "COMMON FACILITY HEALTH NAME": "BOMBAMBILI", "OWNERSHIP": "PUBLIC", "ZONE": "SOUTHERN", "FACILITY_NAME": "BOMBAMBILI", "FACILITY_ID_NUMBER": "100402-7", "LONGITUDE": null, "FACILITY TYPE": "DISPENSARY", "COUNCIL": "SONGEA URBAN", "LATITUDE": null, "_id": 234, "REGION": "RUVUMA", "OPERATING_STATUS": "OPERATING"}, {"RATING": "0", "COMMON FACILITY HEALTH NAME": "BOMBO HOSPITAL", "OWNERSHIP": "PUBLIC", "ZONE": "NORTHERN", "FACILITY_NAME": "BOMBO REGIONAL", "FACILITY_ID_NUMBER": "100405-0", "LONGITUDE": "39.11155", "FACILITY TYPE": "HOSPITAL", "COUNCIL": "TANGA URBAN", "LATITUDE": "-5.06535", "_id": 235, "REGION": "TANGA", "OPERATING_STATUS": "OPERATING"}, {"RATING": "0", "COMMON FACILITY HEALTH NAME": "BONCHUGU DISPENSARY", "OWNERSHIP": "PUBLIC", "ZONE": "LAKE", "FACILITY_NAME": "BONCHUGU", "FACILITY_ID_NUMBER": "100406-8", "LONGITUDE": "34.783327", "FACILITY TYPE": "DISPENSARY", "COUNCIL": "SERENGETI", "LATITUDE": "-1.874362", "_id": 236, "REGION": "MARA", "OPERATING_STATUS": "OPERATING"}, {"RATING": "0", "COMMON FACILITY HEALTH NAME": "BONDE LA MPUNGA", "OWNERSHIP": "PRIVATE", "ZONE": "EASTERN", "FACILITY_NAME": "BONDE LA MPUNGA", "FACILITY_ID_NUMBER": "100407-6", "LONGITUDE": "39.26635", "FACILITY TYPE": "DISPENSARY", "COUNCIL": "KINONDONI URBAN", "LATITUDE": "-6.76963", "_id": 237, "REGION": "DAR ES SALAAM", "OPERATING_STATUS": "OPERATING"}, {"RATING": "0", "COMMON FACILITY HEALTH NAME": "MANYEMA", "OWNERSHIP": "PUBLIC", "ZONE": "NORTHERN", "FACILITY_NAME": "BONDENI", "FACILITY_ID_NUMBER": "100409-2", "LONGITUDE": "37.33994", "FACILITY TYPE": "DISPENSARY", "COUNCIL": "MOSHI URBAN", "LATITUDE": "-3.36007", "_id": 238, "REGION": "KILIMANJARO", "OPERATING_STATUS": "OPERATING"}, {"RATING": "0", "COMMON FACILITY HEALTH NAME": "BONDO", "OWNERSHIP": "PUBLIC", "ZONE": "NORTHERN", "FACILITY_NAME": "BONDO", "FACILITY_ID_NUMBER": "100410-0", "LONGITUDE": "38.57925", "FACILITY TYPE": "DISPENSARY", "COUNCIL": "HANDENI", "LATITUDE": "-5.30427", "_id": 239, "REGION": "TANGA", "OPERATING_STATUS": "OPERATING"}, {"RATING": "0", "COMMON FACILITY HEALTH NAME": "BONGA", "OWNERSHIP": "PUBLIC", "ZONE": "NORTHERN", "FACILITY_NAME": "BONGA", "FACILITY_ID_NUMBER": "100411-8", "LONGITUDE": "35.443", "FACILITY TYPE": "HEALTH CENTRE", "COUNCIL": "BABATI URBAN", "LATITUDE": "-4.20957", "_id": 240, "REGION": "MANYARA", "OPERATING_STATUS": "OPERATING"}, {"RATING": "0", "COMMON FACILITY HEALTH NAME": "", "OWNERSHIP": "PRIVATE", "ZONE": "NORTHERN", "FACILITY_NAME": "BONITE", "FACILITY_ID_NUMBER": "100412-6", "LONGITUDE": null, "FACILITY TYPE": "DISPENSARY", "COUNCIL": "MOSHI URBAN", "LATITUDE": null, "_id": 241, "REGION": "KILIMANJARO", "OPERATING_STATUS": "OPERATING"}, {"RATING": "0", "COMMON FACILITY HEALTH NAME": "BONYOKWA DISPENSARY", "OWNERSHIP": "PUBLIC", "ZONE": "EASTERN", "FACILITY_NAME": "BONYOKWA", "FACILITY_ID_NUMBER": "100413-4", "LONGITUDE": "39.159593", "FACILITY TYPE": "DISPENSARY", "COUNCIL": "ILALA URBAN", "LATITUDE": "-6.834409", "_id": 242, "REGION": "DAR ES SALAAM", "OPERATING_STATUS": "OPERATING"}, {"RATING": "0", "COMMON FACILITY HEALTH NAME": "", "OWNERSHIP": "PUBLIC", "ZONE": "NORTHERN", "FACILITY_NAME": "BOZA", "FACILITY_ID_NUMBER": "100417-5", "LONGITUDE": "38.9736", "FACILITY TYPE": "DISPENSARY", "COUNCIL": "PANGANI", "LATITUDE": "-5.42486", "_id": 243, "REGION": "TANGA", "OPERATING_STATUS": "OPERATING"}, {"RATING": "0", "COMMON FACILITY HEALTH NAME": "SWAMINARAYAN", "OWNERSHIP": "FAITH BASED ORGANIZATION", "ZONE": "EASTERN", "FACILITY_NAME": "B.A.P SWAMINARAYAN", "FACILITY_ID_NUMBER": "100419-1", "LONGITUDE": "39.284997", "FACILITY TYPE": "DISPENSARY", "COUNCIL": "ILALA URBAN", "LATITUDE": "-6.814639", "_id": 244, "REGION": "DAR ES SALAAM", "OPERATING_STATUS": "OPERATING"}, {"RATING": "0", "COMMON FACILITY HEALTH NAME": "", "OWNERSHIP": "FAITH BASED ORGANIZATION", "ZONE": "NORTHERN", "FACILITY_NAME": "TANZANIA BREWERIES LIITED", "FACILITY_ID_NUMBER": "100420-9", "LONGITUDE": "37.34018", "FACILITY TYPE": "DISPENSARY", "COUNCIL": "MOSHI URBAN", "LATITUDE": "-3.36275", "_id": 245, "REGION": "KILIMANJARO", "OPERATING_STATUS": "OPERATING"}, {"RATING": "0", "COMMON FACILITY HEALTH NAME": "BUBALE", "OWNERSHIP": "PUBLIC", "ZONE": "LAKE", "FACILITY_NAME": "BUBALE", "FACILITY_ID_NUMBER": "100421-7", "LONGITUDE": "31.2339", "FACILITY TYPE": "DISPENSARY", "COUNCIL": "MISSENYI", "LATITUDE": "-1.15617", "_id": 246, "REGION": "KAGERA", "OPERATING_STATUS": "OPERATING"}, {"RATING": "0", "COMMON FACILITY HEALTH NAME": "BUBALE", "OWNERSHIP": "PUBLIC", "ZONE": "WESTERN", "FACILITY_NAME": "BUBALE", "FACILITY_ID_NUMBER": "100422-5", "LONGITUDE": null, "FACILITY TYPE": "DISPENSARY", "COUNCIL": "SHINYANGA", "LATITUDE": null, "_id": 247, "REGION": "SHINYANGA", "OPERATING_STATUS": "OPERATING"}, {"RATING": "0", "COMMON FACILITY HEALTH NAME": "BUBANGO DISPENSARY", "OWNERSHIP": "PUBLIC", "ZONE": "WESTERN", "FACILITY_NAME": "BUBANGO", "FACILITY_ID_NUMBER": "100423-3", "LONGITUDE": "29.66945", "FACILITY TYPE": "DISPENSARY", "COUNCIL": "KIGOMA", "LATITUDE": "-4.71996", "_id": 248, "REGION": "KIGOMA", "OPERATING_STATUS": "OPERATING"}, {"RATING": "0", "COMMON FACILITY HEALTH NAME": "BUBIKI", "OWNERSHIP": "PUBLIC", "ZONE": "WESTERN", "FACILITY_NAME": "BUBIKI", "FACILITY_ID_NUMBER": "100424-1", "LONGITUDE": "33.43208", "FACILITY TYPE": "DISPENSARY", "COUNCIL": "KISHAPU", "LATITUDE": "-3.39514", "_id": 249, "REGION": "SHINYANGA", "OPERATING_STATUS": "OPERATING"}, {"RATING": "0", "COMMON FACILITY HEALTH NAME": "BUBINZA", "OWNERSHIP": "PUBLIC", "ZONE": "LAKE", "FACILITY_NAME": "BUBINZA", "FACILITY_ID_NUMBER": "100426-6", "LONGITUDE": "33.49942", "FACILITY TYPE": "DISPENSARY", "COUNCIL": "MAGU", "LATITUDE": "-2.54388", "_id": 250, "REGION": "MWANZA", "OPERATING_STATUS": "OPERATING"}, {"RATING": "0", "COMMON FACILITY HEALTH NAME": "BUBINZA", "OWNERSHIP": "PUBLIC", "ZONE": "WESTERN", "FACILITY_NAME": "BUBINZA", "FACILITY_ID_NUMBER": "100427-4", "LONGITUDE": "33.90234", "FACILITY TYPE": "DISPENSARY", "COUNCIL": "KISHAPU", "LATITUDE": "-3.79", "_id": 251, "REGION": "SHINYANGA", "OPERATING_STATUS": "OPERATING"}, {"RATING": "0", "COMMON FACILITY HEALTH NAME": "BUBOMBI", "OWNERSHIP": "PUBLIC", "ZONE": "LAKE", "FACILITY_NAME": "BUBOMBI", "FACILITY_ID_NUMBER": "100428-2", "LONGITUDE": "34.0756", "FACILITY TYPE": "DISPENSARY", "COUNCIL": "RORYA", "LATITUDE": "-1.0823", "_id": 252, "REGION": "MARA", "OPERATING_STATUS": "OPERATING"}, {"RATING": "0", "COMMON FACILITY HEALTH NAME": "", "OWNERSHIP": "PUBLIC", "ZONE": "WESTERN", "FACILITY_NAME": "BUDEKWA", "FACILITY_ID_NUMBER": "100431-6", "LONGITUDE": "33.81575", "FACILITY TYPE": "DISPENSARY", "COUNCIL": "MASWA", "LATITUDE": "-3.43811", "_id": 253, "REGION": "SIMIYU", "OPERATING_STATUS": "OPERATING"}, {"RATING": "0", "COMMON FACILITY HEALTH NAME": "BUDUSHI DISPENSARY", "OWNERSHIP": "PUBLIC", "ZONE": "WESTERN", "FACILITY_NAME": "BUDUSHI", "FACILITY_ID_NUMBER": "100433-2", "LONGITUDE": "33.33", "FACILITY TYPE": "DISPENSARY", "COUNCIL": "NZEGA", "LATITUDE": "-4.79388", "_id": 254, "REGION": "TABORA", "OPERATING_STATUS": "OPERATING"}, {"RATING": "0", "COMMON FACILITY HEALTH NAME": "BUGAGA DISPENSARY", "OWNERSHIP": "PUBLIC", "ZONE": "WESTERN", "FACILITY_NAME": "BUGAGA", "FACILITY_ID_NUMBER": "100434-0", "LONGITUDE": "30.065691", "FACILITY TYPE": "DISPENSARY", "COUNCIL": "KASULU", "LATITUDE": "-4.664482", "_id": 255, "REGION": "KIGOMA", "OPERATING_STATUS": "OPERATING"}, {"RATING": "0", "COMMON FACILITY HEALTH NAME": "", "OWNERSHIP": "PUBLIC", "ZONE": "WESTERN", "FACILITY_NAME": "BUGAMBA", "FACILITY_ID_NUMBER": "100435-7", "LONGITUDE": "29.651119", "FACILITY TYPE": "DISPENSARY", "COUNCIL": "KIGOMA", "LATITUDE": "-4.598631", "_id": 256, "REGION": "KIGOMA", "OPERATING_STATUS": "OPERATING"}, {"RATING": "0", "COMMON FACILITY HEALTH NAME": "BUGANDIKA", "OWNERSHIP": "PUBLIC", "ZONE": "LAKE", "FACILITY_NAME": "BUGANDIKA", "FACILITY_ID_NUMBER": "100436-5", "LONGITUDE": "31.65784", "FACILITY TYPE": "DISPENSARY", "COUNCIL": "MISSENYI", "LATITUDE": "-1.25709", "_id": 257, "REGION": "KAGERA", "OPERATING_STATUS": "OPERATING"}, {"RATING": "0", "COMMON FACILITY HEALTH NAME": "BUGANDO DISPENSARY", "OWNERSHIP": "PUBLIC", "ZONE": "LAKE", "FACILITY_NAME": "BUGANDO", "FACILITY_ID_NUMBER": "100437-3", "LONGITUDE": "31.95286", "FACILITY TYPE": "DISPENSARY", "COUNCIL": "BUKOMBE", "LATITUDE": "-3.59509", "_id": 258, "REGION": "GEITA", "OPERATING_STATUS": "OPERATING"}, {"RATING": "0", "COMMON FACILITY HEALTH NAME": "BUGANDO REFERRAL HOSPITAL", "OWNERSHIP": "FAITH BASED ORGANIZATION", "ZONE": "LAKE", "FACILITY_NAME": "BUGANDO MEDICAL CENTRE", "FACILITY_ID_NUMBER": "100438-1", "LONGITUDE": "32.90706", "FACILITY TYPE": "HOSPITAL", "COUNCIL": "NYAMAGANA URBAN", "LATITUDE": "-2.52937", "_id": 259, "REGION": "MWANZA", "OPERATING_STATUS": "OPERATING"}, {"RATING": "0", "COMMON FACILITY HEALTH NAME": "BUGANGO", "OWNERSHIP": "FAITH BASED ORGANIZATION", "ZONE": "LAKE", "FACILITY_NAME": "BUGANGO", "FACILITY_ID_NUMBER": "100439-9", "LONGITUDE": null, "FACILITY TYPE": "DISPENSARY", "COUNCIL": "MISSENYI", "LATITUDE": null, "_id": 260, "REGION": "KAGERA", "OPERATING_STATUS": "OPERATING"}, {"RATING": "0", "COMMON FACILITY HEALTH NAME": "BUGANGUZI DISPENSARY", "OWNERSHIP": "PUBLIC", "ZONE": "LAKE", "FACILITY_NAME": "BUGANGUZI", "FACILITY_ID_NUMBER": "100440-7", "LONGITUDE": "31.57471", "FACILITY TYPE": "DISPENSARY", "COUNCIL": "MULEBA", "LATITUDE": "-1.6881", "_id": 261, "REGION": "KAGERA", "OPERATING_STATUS": "OPERATING"}, {"RATING": "0", "COMMON FACILITY HEALTH NAME": "BUGANIKA", "OWNERSHIP": "PUBLIC", "ZONE": "WESTERN", "FACILITY_NAME": "BUGANIKA", "FACILITY_ID_NUMBER": "100441-5", "LONGITUDE": "33.5452", "FACILITY TYPE": "DISPENSARY", "COUNCIL": "KISHAPU", "LATITUDE": "-3.45763", "_id": 262, "REGION": "SHINYANGA", "OPERATING_STATUS": "OPERATING"}, {"RATING": "0", "COMMON FACILITY HEALTH NAME": "BUGANZO", "OWNERSHIP": "PUBLIC", "ZONE": "WESTERN", "FACILITY_NAME": "BUGANZO", "FACILITY_ID_NUMBER": "100444-9", "LONGITUDE": "32.42562", "FACILITY TYPE": "DISPENSARY", "COUNCIL": "MSALALA", "LATITUDE": "-3.62251", "_id": 263, "REGION": "SHINYANGA", "OPERATING_STATUS": "OPERATING"}, {"RATING": "0", "COMMON FACILITY HEALTH NAME": "BUGARAMA", "OWNERSHIP": "PUBLIC", "ZONE": "WESTERN", "FACILITY_NAME": "BUGARAMA", "FACILITY_ID_NUMBER": "100446-4", "LONGITUDE": "32.42476", "FACILITY TYPE": "DISPENSARY", "COUNCIL": "MSALALA", "LATITUDE": "-3.27083", "_id": 264, "REGION": "SHINYANGA", "OPERATING_STATUS": "OPERATING"}, {"RATING": "0", "COMMON FACILITY HEALTH NAME": "", "OWNERSHIP": "PUBLIC", "ZONE": "WESTERN", "FACILITY_NAME": "BUGARAMA", "FACILITY_ID_NUMBER": "100447-2", "LONGITUDE": "33.72516", "FACILITY TYPE": "DISPENSARY", "COUNCIL": "MASWA", "LATITUDE": "-3.29805", "_id": 265, "REGION": "SIMIYU", "OPERATING_STATUS": "OPERATING"}, {"RATING": "0", "COMMON FACILITY HEALTH NAME": "BUGARIKA DISPENSARY", "OWNERSHIP": "PUBLIC", "ZONE": "LAKE", "FACILITY_NAME": "BUGARIKA", "FACILITY_ID_NUMBER": "100448-0", "LONGITUDE": "32.91783", "FACILITY TYPE": "DISPENSARY", "COUNCIL": "NYAMAGANA URBAN", "LATITUDE": "-2.53533", "_id": 266, "REGION": "MWANZA", "OPERATING_STATUS": "OPERATING"}, {"RATING": "0", "COMMON FACILITY HEALTH NAME": "", "OWNERSHIP": "PUBLIC", "ZONE": "LAKE", "FACILITY_NAME": "BUGELENGA", "FACILITY_ID_NUMBER": "100449-8", "LONGITUDE": "32.0124", "FACILITY TYPE": "DISPENSARY", "COUNCIL": "BUKOMBE", "LATITUDE": "-3.64663", "_id": 267, "REGION": "GEITA", "OPERATING_STATUS": "OPERATING"}, {"RATING": "0", "COMMON FACILITY HEALTH NAME": "BUGEMBE", "OWNERSHIP": "PUBLIC", "ZONE": "LAKE", "FACILITY_NAME": "BUGEMBE", "FACILITY_ID_NUMBER": "100450-6", "LONGITUDE": "33.39585", "FACILITY TYPE": "DISPENSARY", "COUNCIL": "KWIMBA", "LATITUDE": "-3.10303", "_id": 268, "REGION": "MWANZA", "OPERATING_STATUS": "OPERATING"}, {"RATING": "0", "COMMON FACILITY HEALTH NAME": "AYALALIO", "OWNERSHIP": "PRIVATE", "ZONE": "NORTHERN", "FACILITY_NAME": "BUGER", "FACILITY_ID_NUMBER": "100451-4", "LONGITUDE": "35.638136", "FACILITY TYPE": "DISPENSARY", "COUNCIL": "KARATU", "LATITUDE": "-3.725942", "_id": 269, "REGION": "ARUSHA", "OPERATING_STATUS": "OPERATING"}, {"RATING": "0", "COMMON FACILITY HEALTH NAME": "BUGIRE", "OWNERSHIP": "PUBLIC", "ZONE": "LAKE", "FACILITY_NAME": "BUGIRE", "FACILITY_ID_NUMBER": "100453-0", "LONGITUDE": "34.2605", "FACILITY TYPE": "DISPENSARY", "COUNCIL": "RORYA", "LATITUDE": "-1.19868", "_id": 270, "REGION": "MARA", "OPERATING_STATUS": "OPERATING"}, {"RATING": "0", "COMMON FACILITY HEALTH NAME": "BUGISHA", "OWNERSHIP": "PUBLIC", "ZONE": "LAKE", "FACILITY_NAME": "BUGISHA", "FACILITY_ID_NUMBER": "100454-8", "LONGITUDE": "32.88467", "FACILITY TYPE": "DISPENSARY", "COUNCIL": "MISUNGWI", "LATITUDE": "-2.85514", "_id": 271, "REGION": "MWANZA", "OPERATING_STATUS": "OPERATING"}, {"RATING": "0", "COMMON FACILITY HEALTH NAME": "BUGISI DISPENSARY", "OWNERSHIP": "FAITH BASED ORGANIZATION", "ZONE": "WESTERN", "FACILITY_NAME": "BUGISI", "FACILITY_ID_NUMBER": "100455-5", "LONGITUDE": "33.0731", "FACILITY TYPE": "DISPENSARY", "COUNCIL": "SHINYANGA", "LATITUDE": "-3.82599", "_id": 272, "REGION": "SHINYANGA", "OPERATING_STATUS": "OPERATING"}, {"RATING": "0", "COMMON FACILITY HEALTH NAME": "BUGOGO", "OWNERSHIP": "PUBLIC", "ZONE": "WESTERN", "FACILITY_NAME": "BUGOGO", "FACILITY_ID_NUMBER": "100456-3", "LONGITUDE": "33.30901", "FACILITY TYPE": "DISPENSARY", "COUNCIL": "SHINYANGA", "LATITUDE": "-3.77168", "_id": 273, "REGION": "SHINYANGA", "OPERATING_STATUS": "OPERATING"}, {"RATING": "0", "COMMON FACILITY HEALTH NAME": "", "OWNERSHIP": "PUBLIC", "ZONE": "LAKE", "FACILITY_NAME": "BUGOJI", "FACILITY_ID_NUMBER": "100457-1", "LONGITUDE": "33.7386", "FACILITY TYPE": "DISPENSARY", "COUNCIL": "MUSOMA", "LATITUDE": "-1.89834", "_id": 274, "REGION": "MARA", "OPERATING_STATUS": "OPERATING"}, {"RATING": "0", "COMMON FACILITY HEALTH NAME": "BUGORORA DISPENSARY", "OWNERSHIP": "PUBLIC", "ZONE": "LAKE", "FACILITY_NAME": "BUGOROLA", "FACILITY_ID_NUMBER": "100458-9", "LONGITUDE": "31.50521", "FACILITY TYPE": "DISPENSARY", "COUNCIL": "MISSENYI", "LATITUDE": "-1.20814", "_id": 275, "REGION": "KAGERA", "OPERATING_STATUS": "OPERATING"}, {"RATING": "0", "COMMON FACILITY HEALTH NAME": "BUGOROLA", "OWNERSHIP": "PUBLIC", "ZONE": "LAKE", "FACILITY_NAME": "BUGOROLA", "FACILITY_ID_NUMBER": "100459-7", "LONGITUDE": "33.01855", "FACILITY TYPE": "DISPENSARY", "COUNCIL": "UKEREWE", "LATITUDE": "-1.98515", "_id": 276, "REGION": "MWANZA", "OPERATING_STATUS": "OPERATING"}, {"RATING": "0", "COMMON FACILITY HEALTH NAME": "BUGULA", "OWNERSHIP": "PUBLIC", "ZONE": "LAKE", "FACILITY_NAME": "BUGULA", "FACILITY_ID_NUMBER": "100460-5", "LONGITUDE": "32.88144", "FACILITY TYPE": "DISPENSARY", "COUNCIL": "UKEREWE", "LATITUDE": "-2.01431", "_id": 277, "REGION": "MWANZA", "OPERATING_STATUS": "OPERATING"}, {"RATING": "0", "COMMON FACILITY HEALTH NAME": "", "OWNERSHIP": "PUBLIC", "ZONE": "LAKE", "FACILITY_NAME": "BUGULULA", "FACILITY_ID_NUMBER": "100461-3", "LONGITUDE": null, "FACILITY TYPE": "DISPENSARY", "COUNCIL": "GEITA", "LATITUDE": null, "_id": 278, "REGION": "GEITA", "OPERATING_STATUS": "OPERATING"}, {"RATING": "0", "COMMON FACILITY HEALTH NAME": "", "OWNERSHIP": "PUBLIC", "ZONE": "LAKE", "FACILITY_NAME": "BUGUNDA", "FACILITY_ID_NUMBER": "100462-1", "LONGITUDE": "33.3571", "FACILITY TYPE": "DISPENSARY", "COUNCIL": "MUSOMA", "LATITUDE": "-1.82463", "_id": 279, "REGION": "MARA", "OPERATING_STATUS": "OPERATING"}, {"RATING": "0", "COMMON FACILITY HEALTH NAME": "", "OWNERSHIP": "PUBLIC", "ZONE": "EASTERN", "FACILITY_NAME": "BUGURUNI", "FACILITY_ID_NUMBER": "100463-9", "LONGITUDE": "39.2445", "FACILITY TYPE": "HEALTH CENTRE", "COUNCIL": "ILALA URBAN", "LATITUDE": "-6.83742", "_id": 280, "REGION": "DAR ES SALAAM", "OPERATING_STATUS": "OPERATING"}, {"RATING": "0", "COMMON FACILITY HEALTH NAME": "BUGURUNI ANGLICAN", "OWNERSHIP": "FAITH BASED ORGANIZATION", "ZONE": "EASTERN", "FACILITY_NAME": "BUGURUNI ANGLICAN", "FACILITY_ID_NUMBER": "100464-7", "LONGITUDE": "39.250185", "FACILITY TYPE": "HEALTH CENTRE", "COUNCIL": "ILALA URBAN", "LATITUDE": "-6.829648", "_id": 281, "REGION": "DAR ES SALAAM", "OPERATING_STATUS": "OPERATING"}, {"RATING": "0", "COMMON FACILITY HEALTH NAME": "ZAHANATI", "OWNERSHIP": "PUBLIC", "ZONE": "LAKE", "FACILITY_NAME": "BUHAMA", "FACILITY_ID_NUMBER": "100466-2", "LONGITUDE": null, "FACILITY TYPE": "DISPENSARY", "COUNCIL": "SENGEREMA", "LATITUDE": null, "_id": 282, "REGION": "MWANZA", "OPERATING_STATUS": "OPERATING"}, {"RATING": "0", "COMMON FACILITY HEALTH NAME": "RUGERA", "OWNERSHIP": "PUBLIC", "ZONE": "LAKE", "FACILITY_NAME": "BUHAMIRA", "FACILITY_ID_NUMBER": "100468-8", "LONGITUDE": "31.246498", "FACILITY TYPE": "DISPENSARY", "COUNCIL": "KARAGWE", "LATITUDE": "-1.562588", "_id": 283, "REGION": "KAGERA", "OPERATING_STATUS": "OPERATING"}, {"RATING": "0", "COMMON FACILITY HEALTH NAME": "BUHANDA", "OWNERSHIP": "PUBLIC", "ZONE": "WESTERN", "FACILITY_NAME": "BUHANDA", "FACILITY_ID_NUMBER": "100469-6", "LONGITUDE": "29.666783", "FACILITY TYPE": "DISPENSARY", "COUNCIL": "KIGOMA-UJIJI URBAN", "LATITUDE": "-4.866298", "_id": 284, "REGION": "KIGOMA", "OPERATING_STATUS": "OPERATING"}, {"RATING": "0", "COMMON FACILITY HEALTH NAME": "BUHANGIJA DSPENSARY", "OWNERSHIP": "FAITH BASED ORGANIZATION", "ZONE": "WESTERN", "FACILITY_NAME": "BUHANGIJA", "FACILITY_ID_NUMBER": "100470-4", "LONGITUDE": "33.41269", "FACILITY TYPE": "DISPENSARY", "COUNCIL": "SHINYANGA URBAN", "LATITUDE": "-3.68658", "_id": 285, "REGION": "SHINYANGA", "OPERATING_STATUS": "OPERATING"}, {"RATING": "0", "COMMON FACILITY HEALTH NAME": "BUHARE", "OWNERSHIP": "PUBLIC", "ZONE": "LAKE", "FACILITY_NAME": "BUHARE", "FACILITY_ID_NUMBER": "100471-2", "LONGITUDE": "33.785273", "FACILITY TYPE": "DISPENSARY", "COUNCIL": "MUSOMA URBAN", "LATITUDE": "-1.516481", "_id": 286, "REGION": "MARA", "OPERATING_STATUS": "OPERATING"}, {"RATING": "0", "COMMON FACILITY HEALTH NAME": "BUHEMBA", "OWNERSHIP": "PUBLIC", "ZONE": "LAKE", "FACILITY_NAME": "BUHEMBA", "FACILITY_ID_NUMBER": "100473-8", "LONGITUDE": "34.0789", "FACILITY TYPE": "DISPENSARY", "COUNCIL": "BUTIAMA", "LATITUDE": "-1.76362", "_id": 287, "REGION": "MARA", "OPERATING_STATUS": "OPERATING"}, {"RATING": "0", "COMMON FACILITY HEALTH NAME": "BUHEMBE", "OWNERSHIP": "PUBLIC", "ZONE": "LAKE", "FACILITY_NAME": "BUHEMBE", "FACILITY_ID_NUMBER": "100474-6", "LONGITUDE": "31.80765", "FACILITY TYPE": "DISPENSARY", "COUNCIL": "BUKOBA URBAN", "LATITUDE": "-1.2867", "_id": 288, "REGION": "KAGERA", "OPERATING_STATUS": "OPERATING"}, {"RATING": "0", "COMMON FACILITY HEALTH NAME": "ZAHANATI YA BUHIGWE", "OWNERSHIP": "PUBLIC", "ZONE": "WESTERN", "FACILITY_NAME": "BUHIGWE", "FACILITY_ID_NUMBER": "100475-3", "LONGITUDE": "29.92598", "FACILITY TYPE": "DISPENSARY", "COUNCIL": "BUHIGWE", "LATITUDE": "-4.45099", "_id": 289, "REGION": "KIGOMA", "OPERATING_STATUS": "OPERATING"}, {"RATING": "0", "COMMON FACILITY HEALTH NAME": "ZAHANATI", "OWNERSHIP": "PUBLIC", "ZONE": "LAKE", "FACILITY_NAME": "BUHINDI", "FACILITY_ID_NUMBER": "100476-1", "LONGITUDE": "32.18441", "FACILITY TYPE": "DISPENSARY", "COUNCIL": "SENGEREMA", "LATITUDE": "-2.4114", "_id": 290, "REGION": "MWANZA", "OPERATING_STATUS": "OPERATING"},